{
  "version": 0.6,
  "generator": "Overpass API 0.7.55.5 2ca3f387",
  "osm3s": {
    "timestamp_osm_base": "2019-01-08T09:17:02Z",
    "timestamp_areas_base": "2019-01-08T08:29:02Z",
    "copyright": "The data included in this document is from www.openstreetmap.org. The data is made available under ODbL."
  },
  "elements": [
    {
      "type": "node",
      "id": 616688541,
      "lat": 27.6124826,
      "lon": 85.2648556,
      "tags": {
        "name": "Pharping Fresh House",
        "shop": "supermarket"
      }
    },
    {
      "type": "node",
      "id": 669259323,
      "lat": 27.6919896,
      "lon": 85.3166288,
      "tags": {
        "amenity": "restaurant",
        "name": "KFC Branch Thapathali",
        "shop": "department_store"
      }
    },
    {
      "type": "node",
      "id": 765002057,
      "lat": 27.7103547,
      "lon": 85.3240085,
      "tags": {
        "email": "kmcs.workshop@gmail.com",
        "name": "Kathmandu Motorcycle Servicing Workshop (Pushpa Narayan)",
        "opening_hours": "Su-Fr 09:00-17:00",
        "phone": "014422857",
        "shop": "car_repair",
        "transportation": "car_repair",
        "website": "https://www.facebook.com/KathmanduMotorcycleServicingWorkshop/"
      }
    },
    {
      "type": "node",
      "id": 945666471,
      "lat": 27.7155039,
      "lon": 85.3102978,
      "tags": {
        "name": "Pilgrims Bookstore",
        "shop": "books"
      }
    },
    {
      "type": "node",
      "id": 993710677,
      "lat": 27.7072876,
      "lon": 85.3084167,
      "tags": {
        "area": "yes",
        "name": "Kancha Baniya Impex",
        "shop": "Herbals, Plants",
        "source": "survey"
      }
    },
    {
      "type": "node",
      "id": 1349642555,
      "lat": 27.7142277,
      "lon": 85.3130263,
      "tags": {
        "name": "Tibet Book Store",
        "shop": "books"
      }
    },
    {
      "type": "node",
      "id": 1349680679,
      "lat": 27.7141973,
      "lon": 85.3123745,
      "tags": {
        "shop": "books"
      }
    },
    {
      "type": "node",
      "id": 1349680759,
      "lat": 27.7130573,
      "lon": 85.3121526,
      "tags": {
        "name": "Nepal Kaze Travel",
        "shop": "travel_agency"
      }
    },
    {
      "type": "node",
      "id": 1389196671,
      "lat": 27.6897609,
      "lon": 85.3291147,
      "tags": {
        "name": "Tex World",
        "shop": "fabric"
      }
    },
    {
      "type": "node",
      "id": 1399427323,
      "lat": 27.6956292,
      "lon": 85.3472771,
      "tags": {
        "name:en": "Rajesh Cold Store",
        "name:ne": "राजेश कोल्ड स्टोर",
        "shop": "butcher"
      }
    },
    {
      "type": "node",
      "id": 1440773344,
      "lat": 27.7031234,
      "lon": 85.3127584,
      "tags": {
        "name": "New Road Gudpak Store",
        "name:ne": "गुदपाक भण्डार",
        "shop": "convenience"
      }
    },
    {
      "type": "node",
      "id": 1459048625,
      "lat": 27.7124632,
      "lon": 85.3179454,
      "tags": {
        "addr:street": "Durbar Marg",
        "name": "Big Apple",
        "shop": "clothes"
      }
    },
    {
      "type": "node",
      "id": 1496676807,
      "lat": 27.696671,
      "lon": 85.3054443,
      "tags": {
        "name": "Tata Motors",
        "shop": "car"
      }
    },
    {
      "type": "node",
      "id": 1496676814,
      "lat": 27.696449,
      "lon": 85.2942682,
      "tags": {
        "name": "TATA (Sipradi)",
        "shop": "car_repair"
      }
    },
    {
      "type": "node",
      "id": 1496676815,
      "lat": 27.6979582,
      "lon": 85.303851,
      "tags": {
        "name": "Hero Honda Showroom",
        "shop": "motorcycle"
      }
    },
    {
      "type": "node",
      "id": 1497178948,
      "lat": 27.7076436,
      "lon": 85.2817775,
      "tags": {
        "name": "Subekcha",
        "shop": "supermarket"
      }
    },
    {
      "type": "node",
      "id": 1497190405,
      "lat": 27.7104323,
      "lon": 85.3151712,
      "tags": {
        "name": "Honda Showroom",
        "shop": "motorcycle"
      }
    },
    {
      "type": "node",
      "id": 1497192804,
      "lat": 27.716606,
      "lon": 85.2841326,
      "tags": {
        "shop": "convenience"
      }
    },
    {
      "type": "node",
      "id": 1497543103,
      "lat": 27.6992669,
      "lon": 85.3127206,
      "tags": {
        "addr:street": "Civil mall",
        "internet_access": "wlan",
        "name:en": "nuon store",
        "opening_hours": "Mo-Su 11:00-19:30",
        "phone": "014216633",
        "shop": "clothes",
        "website": "http://www.facebook.com/nuonstore"
      }
    },
    {
      "type": "node",
      "id": 1498844415,
      "lat": 27.6957657,
      "lon": 85.3082387,
      "tags": {
        "name": "Bajaj Motorcycle Showroom",
        "shop": "motorcycle"
      }
    },
    {
      "type": "node",
      "id": 1498844462,
      "lat": 27.6940748,
      "lon": 85.3102986,
      "tags": {
        "name": "Suzuki Workshop",
        "shop": "motorcycle"
      }
    },
    {
      "type": "node",
      "id": 1622172123,
      "lat": 27.7164834,
      "lon": 85.3107886,
      "tags": {
        "name": "Kathmandu Peace Guest House;Tea & Souvenirs",
        "shop": "gift",
        "tourism": "hotel",
        "website": "http://www.hotel-in-nepal.com/"
      }
    },
    {
      "type": "node",
      "id": 1645445987,
      "lat": 27.6927207,
      "lon": 85.3021011,
      "tags": {
        "shop": "alcohol"
      }
    },
    {
      "type": "node",
      "id": 1837855970,
      "lat": 27.7150151,
      "lon": 85.3270188,
      "tags": {
        "name": "Hyosun Bike Showroom",
        "shop": "motorcycle"
      }
    },
    {
      "type": "node",
      "id": 1837856905,
      "lat": 27.7147928,
      "lon": 85.3270273,
      "tags": {
        "name": "KTM Duke Showroom",
        "shop": "motorcycle"
      }
    },
    {
      "type": "node",
      "id": 1845559149,
      "lat": 27.72314,
      "lon": 85.3226811,
      "tags": {
        "designation": "Treks and Expeditions",
        "name": "Firante Treks and Expeditions",
        "phone": "+977 1-4000043",
        "shop": "travel_agency",
        "website": "http://www.firante.com/"
      }
    },
    {
      "type": "node",
      "id": 1857049437,
      "lat": 27.7105724,
      "lon": 85.3176409,
      "tags": {
        "name": "EVO Store",
        "shop": "hifi"
      }
    },
    {
      "type": "node",
      "id": 1880545885,
      "lat": 27.7384645,
      "lon": 85.3489796,
      "tags": {
        "name": "S S Store",
        "shop": "convenience"
      }
    },
    {
      "type": "node",
      "id": 1882040499,
      "lat": 27.7069517,
      "lon": 85.317697,
      "tags": {
        "name": "Ratna Pustak Bhandar",
        "shop": "books"
      }
    },
    {
      "type": "node",
      "id": 1882051987,
      "lat": 27.6902837,
      "lon": 85.31823,
      "tags": {
        "name": "Ekta Publication",
        "shop": "books"
      }
    },
    {
      "type": "node",
      "id": 1885424973,
      "lat": 27.693876,
      "lon": 85.284526,
      "tags": {
        "shop": "supermarket"
      }
    },
    {
      "type": "node",
      "id": 1892796770,
      "lat": 27.7033454,
      "lon": 85.3190567,
      "tags": {
        "name": "Sangrila Book shop",
        "shop": "books"
      }
    },
    {
      "type": "node",
      "id": 1893231269,
      "lat": 27.6861424,
      "lon": 85.2394505,
      "tags": {
        "name": "Subha Lamichane Store",
        "shop": "general"
      }
    },
    {
      "type": "node",
      "id": 1894251036,
      "lat": 27.6918598,
      "lon": 85.3178716,
      "tags": {
        "brand": "Ford",
        "name": "Ford showroom",
        "shop": "car"
      }
    },
    {
      "type": "node",
      "id": 1894356843,
      "lat": 27.6923944,
      "lon": 85.3184887,
      "tags": {
        "brand": "Hyundai",
        "name": "Hyundai Showroom",
        "shop": "car"
      }
    },
    {
      "type": "node",
      "id": 1894412786,
      "lat": 27.6944412,
      "lon": 85.322931,
      "tags": {
        "name": "Baber Mahal Revisited",
        "name:en": "Babar Mahal Revisited",
        "shop": "mall"
      }
    },
    {
      "type": "node",
      "id": 1895953870,
      "lat": 27.6747291,
      "lon": 85.2805903,
      "tags": {
        "name": "Aastha Store",
        "shop": "supermarket"
      }
    },
    {
      "type": "node",
      "id": 1895953887,
      "lat": 27.6741159,
      "lon": 85.2808473,
      "tags": {
        "name": "Kirtipur Market",
        "shop": "supermarket"
      }
    },
    {
      "type": "node",
      "id": 1898350096,
      "lat": 27.7136675,
      "lon": 85.3247854,
      "tags": {
        "name": "Eternal Spring",
        "shop": "clothes"
      }
    },
    {
      "type": "node",
      "id": 1898414113,
      "lat": 27.714127,
      "lon": 85.3248904,
      "tags": {
        "name": "Airarabia airlines",
        "shop": "travel_agency"
      }
    },
    {
      "type": "node",
      "id": 1898414116,
      "lat": 27.7137303,
      "lon": 85.3248249,
      "tags": {
        "name": "Voyage Unlimited Tours and Travel",
        "shop": "travel_agency"
      }
    },
    {
      "type": "node",
      "id": 1898463260,
      "lat": 27.7157253,
      "lon": 85.3253999,
      "tags": {
        "name": "Amaravati International (Dragon Air)",
        "shop": "travel_agency"
      }
    },
    {
      "type": "node",
      "id": 1898522994,
      "lat": 27.7226965,
      "lon": 85.331364,
      "tags": {
        "name": "Surya Dry Cleaners",
        "shop": "dry_cleaning"
      }
    },
    {
      "type": "node",
      "id": 1898523968,
      "lat": 27.7150395,
      "lon": 85.3269238,
      "tags": {
        "name": "Mahindra 2 wheelers",
        "shop": "motorcycle"
      }
    },
    {
      "type": "node",
      "id": 1898540390,
      "lat": 27.7216547,
      "lon": 85.3313175,
      "tags": {
        "name": "Shukunda Botique",
        "shop": "boutique"
      }
    },
    {
      "type": "node",
      "id": 1898549998,
      "lat": 27.7212312,
      "lon": 85.3278148,
      "tags": {
        "building": "yes",
        "name": "Karuna Interiors",
        "shop": "interiors"
      }
    },
    {
      "type": "node",
      "id": 1898554933,
      "lat": 27.7150663,
      "lon": 85.3268005,
      "tags": {
        "name": "Sharp World",
        "shop": "electronics"
      }
    },
    {
      "type": "node",
      "id": 1898554936,
      "lat": 27.7145448,
      "lon": 85.328855,
      "tags": {
        "name": "Sigma Interior",
        "shop": "furniture"
      }
    },
    {
      "type": "node",
      "id": 1898572363,
      "lat": 27.7151119,
      "lon": 85.3298416,
      "tags": {
        "name": "Broadway Travels",
        "shop": "travel_agency"
      }
    },
    {
      "type": "node",
      "id": 1898593307,
      "lat": 27.7165951,
      "lon": 85.3303775,
      "tags": {
        "name": "East Travels Nepal",
        "shop": "travel_agency"
      }
    },
    {
      "type": "node",
      "id": 1898593310,
      "lat": 27.7166803,
      "lon": 85.3303383,
      "tags": {
        "name": "Tangal Bakery Cafe",
        "shop": "bakery"
      }
    },
    {
      "type": "node",
      "id": 1898624380,
      "lat": 27.7192629,
      "lon": 85.3310149,
      "tags": {
        "name": "Anmol Sweets",
        "opening_hours": "Mo-Su 08:00-20:00",
        "phone": "014420689",
        "shop": "confectionery"
      }
    },
    {
      "type": "node",
      "id": 1898624381,
      "lat": 27.7190585,
      "lon": 85.3309563,
      "tags": {
        "name": "Baker's Den",
        "shop": "bakery"
      }
    },
    {
      "type": "node",
      "id": 1898624383,
      "lat": 27.7189125,
      "lon": 85.3309048,
      "tags": {
        "name": "Fabindia",
        "shop": "clothes"
      }
    },
    {
      "type": "node",
      "id": 1898624384,
      "lat": 27.7177888,
      "lon": 85.3307042,
      "tags": {
        "brand": "Apple",
        "name": "Deals & Steals",
        "shop": "clothes"
      }
    },
    {
      "type": "node",
      "id": 1898624389,
      "lat": 27.7177518,
      "lon": 85.3306912,
      "tags": {
        "name": "Solmon Fashion Wear",
        "shop": "clothes"
      }
    },
    {
      "type": "node",
      "id": 1898624400,
      "lat": 27.7190914,
      "lon": 85.3309708,
      "tags": {
        "name": "K Lab",
        "shop": "yes"
      }
    },
    {
      "type": "node",
      "id": 1898624404,
      "lat": 27.7189636,
      "lon": 85.3309234,
      "tags": {
        "shop": "mobile_phone"
      }
    },
    {
      "type": "node",
      "id": 1901867628,
      "lat": 27.7476063,
      "lon": 85.3477436,
      "tags": {
        "name": "Golphutar Store",
        "shop": "convenience"
      }
    },
    {
      "type": "node",
      "id": 1901867631,
      "lat": 27.7403086,
      "lon": 85.3489872,
      "tags": {
        "name": "Mandikhatar Liquors Centre",
        "shop": "alcohol"
      }
    },
    {
      "type": "node",
      "id": 1901867633,
      "lat": 27.7475615,
      "lon": 85.3480091,
      "tags": {
        "name": "Veriety Store",
        "shop": "convenience"
      }
    },
    {
      "type": "node",
      "id": 1905155323,
      "lat": 27.7401581,
      "lon": 85.3365796,
      "tags": {
        "name": "Ace Travels",
        "shop": "travel_agency"
      }
    },
    {
      "type": "node",
      "id": 1905155347,
      "lat": 27.7394469,
      "lon": 85.3388475,
      "tags": {
        "name": "Hessey Liquid Shop",
        "name:en": "Shyam & Sons Liquor Store",
        "shop": "alcohol"
      }
    },
    {
      "type": "node",
      "id": 1905155348,
      "lat": 27.7396769,
      "lon": 85.3380256,
      "tags": {
        "name": "Hot Bread",
        "shop": "bakery"
      }
    },
    {
      "type": "node",
      "id": 1905155376,
      "lat": 27.7401249,
      "lon": 85.3365196,
      "tags": {
        "name": "Seasons Tailoring",
        "shop": "tailor"
      }
    },
    {
      "type": "node",
      "id": 1905155388,
      "lat": 27.7400289,
      "lon": 85.3367875,
      "tags": {
        "name": "View Beauty Parlour",
        "shop": "hairdresser"
      }
    },
    {
      "type": "node",
      "id": 1905155389,
      "lat": 27.7383598,
      "lon": 85.3394776,
      "tags": {
        "name": "Wood N Style Pvt Ltd",
        "shop": "furniture"
      }
    },
    {
      "type": "node",
      "id": 1905248671,
      "lat": 27.7076393,
      "lon": 85.3382703,
      "tags": {
        "name": "Joshi Store",
        "shop": "convenience"
      }
    },
    {
      "type": "node",
      "id": 1905315219,
      "lat": 27.6999415,
      "lon": 85.3209524,
      "tags": {
        "name": "Myshop dry cleaners",
        "shop": "dry_cleaning"
      }
    },
    {
      "type": "node",
      "id": 1905322080,
      "lat": 27.7009588,
      "lon": 85.3220174,
      "tags": {
        "name": "syakar company ltd ( Honda showroom)",
        "shop": "motorcycle"
      }
    },
    {
      "type": "node",
      "id": 1905329017,
      "lat": 27.7015886,
      "lon": 85.3223961,
      "tags": {
        "name": "Pairavi book house",
        "shop": "books"
      }
    },
    {
      "type": "node",
      "id": 1905332717,
      "lat": 27.7021186,
      "lon": 85.3224679,
      "tags": {
        "name": "Vishwa Auto center",
        "shop": "car"
      }
    },
    {
      "type": "node",
      "id": 1905348126,
      "lat": 27.7029392,
      "lon": 85.3226161,
      "tags": {
        "name": "Five star digital lab and studio",
        "shop": "photo_studio"
      }
    },
    {
      "type": "node",
      "id": 1905350504,
      "lat": 27.7031036,
      "lon": 85.3225954,
      "tags": {
        "name": "Ram hair cutting",
        "shop": "hairdresser"
      }
    },
    {
      "type": "node",
      "id": 1905371873,
      "lat": 27.7016072,
      "lon": 85.3224018,
      "tags": {
        "name": "Hero Honda Showroom",
        "shop": "motorcycle"
      }
    },
    {
      "type": "node",
      "id": 1905373568,
      "lat": 27.7035564,
      "lon": 85.3224651,
      "tags": {
        "name": "Utsav books and stationers",
        "shop": "books"
      }
    },
    {
      "type": "node",
      "id": 1906696043,
      "lat": 27.7394036,
      "lon": 85.3395765,
      "tags": {
        "name": "Monalisa Shirting & Suitiing",
        "shop": "clothes"
      }
    },
    {
      "type": "node",
      "id": 1906696204,
      "lat": 27.7393418,
      "lon": 85.3395548,
      "tags": {
        "name": "BBSM Jewellers",
        "shop": "jewelry"
      }
    },
    {
      "type": "node",
      "id": 1907895028,
      "lat": 27.7249497,
      "lon": 85.3371484,
      "tags": {
        "name": "Dibya shopping center",
        "name:en": "Dibya Shopping Store",
        "shop": "department_store"
      }
    },
    {
      "type": "node",
      "id": 1907895396,
      "lat": 27.7248615,
      "lon": 85.3371801,
      "tags": {
        "name": "Easy Cuts",
        "shop": "hairdresser",
        "type": "parlour"
      }
    },
    {
      "type": "node",
      "id": 1907896202,
      "lat": 27.726826,
      "lon": 85.3341063,
      "tags": {
        "name": "Blue Sapphire Travels and Tours",
        "shop": "travel_agency"
      }
    },
    {
      "type": "node",
      "id": 1907900673,
      "lat": 27.7249364,
      "lon": 85.3313609,
      "tags": {
        "name": "European Bakery",
        "shop": "bakery"
      }
    },
    {
      "type": "node",
      "id": 1911303401,
      "lat": 27.7439656,
      "lon": 85.3395282,
      "tags": {
        "amenity": "fuel",
        "brand": "Lumbini Gas",
        "fuel:GTL_diesel": "no",
        "fuel:lpg": "yes",
        "name": "Lumbini Gas",
        "shop": "yes"
      }
    },
    {
      "type": "node",
      "id": 1911303418,
      "lat": 27.740169,
      "lon": 85.3444496,
      "tags": {
        "name": "New Plant Haven Nursery",
        "shop": "garden_centre"
      }
    },
    {
      "type": "node",
      "id": 1911303484,
      "lat": 27.7429424,
      "lon": 85.3405307,
      "tags": {
        "shop": "garden_centre"
      }
    },
    {
      "type": "node",
      "id": 1914262002,
      "lat": 27.7142574,
      "lon": 85.3430136,
      "tags": {
        "name": "My Choice Shopping",
        "shop": "convenience"
      }
    },
    {
      "type": "node",
      "id": 1916811266,
      "lat": 27.6702923,
      "lon": 85.2707271,
      "tags": {
        "name": "New Motorcycle Workshop",
        "shop": "car_repair"
      }
    },
    {
      "type": "node",
      "id": 1917102721,
      "lat": 27.7391031,
      "lon": 85.3362002,
      "tags": {
        "name": "N D Wines",
        "shop": "alcohol"
      }
    },
    {
      "type": "node",
      "id": 1917102731,
      "lat": 27.7384118,
      "lon": 85.3352529,
      "tags": {
        "name": "Namaste Supermarket",
        "shop": "supermarket"
      }
    },
    {
      "type": "node",
      "id": 1917102737,
      "lat": 27.7377894,
      "lon": 85.3344981,
      "tags": {
        "name": "Nina and Hager Meat Shop",
        "shop": "butcher"
      }
    },
    {
      "type": "node",
      "id": 1918582158,
      "lat": 27.7376218,
      "lon": 85.3346486,
      "tags": {
        "name": "Impressive Fashion",
        "shop": "boutique"
      }
    },
    {
      "type": "node",
      "id": 1918582160,
      "lat": 27.7387188,
      "lon": 85.3349075,
      "tags": {
        "name": "M D Furniture",
        "name:en": "S r pandey and co.",
        "shop": "furniture"
      }
    },
    {
      "type": "node",
      "id": 1918582174,
      "lat": 27.7378506,
      "lon": 85.3343538,
      "tags": {
        "name": "Saleways Supermarket",
        "shop": "supermarket"
      }
    },
    {
      "type": "node",
      "id": 1927427260,
      "lat": 27.6766073,
      "lon": 85.3454832,
      "tags": {
        "building": "yes",
        "name": "Chandeshwori Hardware",
        "shop": "hardware"
      }
    },
    {
      "type": "node",
      "id": 1927427292,
      "lat": 27.6776054,
      "lon": 85.346993,
      "tags": {
        "building": "yes",
        "name": "Rims Kastha Uddhyog",
        "shop": "wood"
      }
    },
    {
      "type": "node",
      "id": 1933454137,
      "lat": 27.6861272,
      "lon": 85.3353205,
      "tags": {
        "building": "yes",
        "name": "Shuva laxmi",
        "shop": "department_store"
      }
    },
    {
      "type": "node",
      "id": 1936280972,
      "lat": 27.6819388,
      "lon": 85.3365544,
      "tags": {
        "name": "A to Z store",
        "shop": "convenience"
      }
    },
    {
      "type": "node",
      "id": 1936280976,
      "lat": 27.6811213,
      "lon": 85.3360456,
      "tags": {
        "name": "Bimba Kirana Store",
        "shop": "convenience"
      }
    },
    {
      "type": "node",
      "id": 1936280993,
      "lat": 27.6823203,
      "lon": 85.334427,
      "tags": {
        "name": "Khatiwada Store",
        "shop": "convenience"
      }
    },
    {
      "type": "node",
      "id": 1936280995,
      "lat": 27.6830143,
      "lon": 85.3353283,
      "tags": {
        "name": "Laxmi Bhandar",
        "shop": "convenience"
      }
    },
    {
      "type": "node",
      "id": 1936280997,
      "lat": 27.6834298,
      "lon": 85.333711,
      "tags": {
        "name": "My Home Department Store",
        "shop": "department_store"
      }
    },
    {
      "type": "node",
      "id": 1936281001,
      "lat": 27.6874947,
      "lon": 85.3380683,
      "tags": {
        "craft": "carpenter",
        "name": "New Bibek and Binay Furniture",
        "shop": "furniture"
      }
    },
    {
      "type": "node",
      "id": 1936281002,
      "lat": 27.6834445,
      "lon": 85.3339066,
      "tags": {
        "name": "New National Fashion",
        "shop": "tailor"
      }
    },
    {
      "type": "node",
      "id": 1936281006,
      "lat": 27.6831391,
      "lon": 85.336751,
      "tags": {
        "name": "Pasa U Motorcycle Workshop",
        "shop": "motorcycle"
      }
    },
    {
      "type": "node",
      "id": 1936281008,
      "lat": 27.6818221,
      "lon": 85.3366503,
      "tags": {
        "name": "Pokharel Kinara Store",
        "shop": "convenience"
      }
    },
    {
      "type": "node",
      "id": 1936281012,
      "lat": 27.6831004,
      "lon": 85.335281,
      "tags": {
        "name": "RK Dvd Gallery",
        "shop": "video"
      }
    },
    {
      "type": "node",
      "id": 1936281017,
      "lat": 27.6837951,
      "lon": 85.3349933,
      "tags": {
        "name": "Annapurna Suppliers",
        "shop": "convenience"
      }
    },
    {
      "type": "node",
      "id": 1936281018,
      "lat": 27.6829917,
      "lon": 85.3363294,
      "tags": {
        "name": "Sharp Travels and Tours Pvt Ltd",
        "office": "travel_agent",
        "shop": "travel_agency"
      }
    },
    {
      "type": "node",
      "id": 1936281029,
      "lat": 27.6831626,
      "lon": 85.3346712,
      "tags": {
        "name": "Thapa Metal Store",
        "shop": "hardware"
      }
    },
    {
      "type": "node",
      "id": 1936281032,
      "lat": 27.6869101,
      "lon": 85.3351956,
      "tags": {
        "name": "Variety Wine Shop",
        "shop": "alcohol"
      }
    },
    {
      "type": "node",
      "id": 1936281035,
      "lat": 27.6830643,
      "lon": 85.335072,
      "tags": {
        "name": "Sapana Ladies Tailors",
        "shop": "tailor"
      }
    },
    {
      "type": "node",
      "id": 1939217808,
      "lat": 27.7186018,
      "lon": 85.3311523,
      "tags": {
        "alt_name": "bhatbhatini supermarket",
        "name": "Bhat-Bhateni Super Market",
        "shop": "supermarket",
        "toilets:wheelchair": "no",
        "wheelchair": "yes"
      }
    },
    {
      "type": "node",
      "id": 1940015185,
      "lat": 27.7143391,
      "lon": 85.3124162,
      "tags": {
        "name": "Best Shopping Center",
        "shop": "convenience",
        "toilets:wheelchair": "no",
        "wheelchair": "no"
      }
    },
    {
      "type": "node",
      "id": 1942420184,
      "lat": 27.6947435,
      "lon": 85.3083743,
      "tags": {
        "name": "Bajaj Service Center",
        "shop": "motorcycle"
      }
    },
    {
      "type": "node",
      "id": 1945544692,
      "lat": 27.691183,
      "lon": 85.3233997,
      "tags": {
        "name": "Speed bike workshop",
        "shop": "motorcycle"
      }
    },
    {
      "type": "node",
      "id": 1945544757,
      "lat": 27.6908821,
      "lon": 85.323634,
      "tags": {
        "name": "Bijay Store",
        "shop": "convenience"
      }
    },
    {
      "type": "node",
      "id": 1945608794,
      "lat": 27.6875156,
      "lon": 85.3267003,
      "tags": {
        "name": "Dinesh Furnitues",
        "shop": "furniture"
      }
    },
    {
      "type": "node",
      "id": 1945608795,
      "lat": 27.6896828,
      "lon": 85.323792,
      "tags": {
        "name": "Dudh Dahi Bhandar",
        "produce": "dairy",
        "shop": "farm"
      }
    },
    {
      "type": "node",
      "id": 1945608797,
      "lat": 27.6875486,
      "lon": 85.3262306,
      "tags": {
        "name": "Harisiddhi Paint House",
        "shop": "paint"
      }
    },
    {
      "type": "node",
      "id": 1945608804,
      "lat": 27.6889248,
      "lon": 85.3246131,
      "tags": {
        "name": "Modern Hair Cutting",
        "shop": "hairdresser"
      }
    },
    {
      "type": "node",
      "id": 1945608808,
      "lat": 27.6898745,
      "lon": 85.3235719,
      "tags": {
        "name": "New Horizon Ladies Tailors",
        "shop": "tailor"
      }
    },
    {
      "type": "node",
      "id": 1945608814,
      "lat": 27.6884743,
      "lon": 85.3252799,
      "tags": {
        "name": "Surya Deep Tailor",
        "shop": "tailor"
      }
    },
    {
      "type": "node",
      "id": 1945608832,
      "lat": 27.6877202,
      "lon": 85.3279181,
      "tags": {
        "shop": "motorcycle"
      }
    },
    {
      "type": "node",
      "id": 1945608845,
      "lat": 27.6888162,
      "lon": 85.3250605,
      "tags": {
        "shop": "chemist"
      }
    },
    {
      "type": "node",
      "id": 1945608851,
      "lat": 27.6889857,
      "lon": 85.324379,
      "tags": {
        "shop": "video"
      }
    },
    {
      "type": "node",
      "id": 1945637489,
      "lat": 27.6920682,
      "lon": 85.3305266,
      "tags": {
        "name": "Sahara Motorycle Workshop",
        "shop": "motorcycle"
      }
    },
    {
      "type": "node",
      "id": 1947098660,
      "lat": 27.6956799,
      "lon": 85.3072513,
      "tags": {
        "shop": "motorcycle"
      }
    },
    {
      "type": "node",
      "id": 1947098686,
      "lat": 27.6937939,
      "lon": 85.304447,
      "tags": {
        "name": "Babu Bishnu Motorcycle Workshop",
        "shop": "motorcycle"
      }
    },
    {
      "type": "node",
      "id": 1954648498,
      "lat": 27.7020977,
      "lon": 85.3197145,
      "tags": {
        "name": "Sajha Prakashan",
        "shop": "books"
      }
    },
    {
      "type": "node",
      "id": 1956958673,
      "lat": 27.7136531,
      "lon": 85.3226049,
      "tags": {
        "name": "Innov8",
        "shop": "clothes"
      }
    },
    {
      "type": "node",
      "id": 1956979191,
      "lat": 27.7136057,
      "lon": 85.3224423,
      "tags": {
        "name": "Hidden holidays travels and tours pvt. ltd.",
        "shop": "travel_agency"
      }
    },
    {
      "type": "node",
      "id": 1956979193,
      "lat": 27.7136572,
      "lon": 85.3224992,
      "tags": {
        "name": "Netra Travels and Tours pvt. ltd",
        "shop": "travel_agency"
      }
    },
    {
      "type": "node",
      "id": 1956979194,
      "lat": 27.7136392,
      "lon": 85.3225608,
      "tags": {
        "name": "Titanic travels and tours pvt. ltd.",
        "shop": "travel_agency"
      }
    },
    {
      "type": "node",
      "id": 1957113649,
      "lat": 27.7131838,
      "lon": 85.3239777,
      "tags": {
        "name": "Air Express International Travels and Tours",
        "shop": "travel_agency"
      }
    },
    {
      "type": "node",
      "id": 1957113650,
      "lat": 27.7131703,
      "lon": 85.3239133,
      "tags": {
        "name": "Arihat holidays.com",
        "shop": "travel_agency"
      }
    },
    {
      "type": "node",
      "id": 1957113651,
      "lat": 27.713422,
      "lon": 85.3234627,
      "tags": {
        "name": "Astha international travels and tours",
        "shop": "travel_agency"
      }
    },
    {
      "type": "node",
      "id": 1957113654,
      "lat": 27.7131821,
      "lon": 85.3239812,
      "tags": {
        "name": "Bharosa Travels and Tours",
        "shop": "travel_agency"
      }
    },
    {
      "type": "node",
      "id": 1957113655,
      "lat": 27.7132691,
      "lon": 85.323761,
      "tags": {
        "name": "M S motorcycle (Spare Parts)",
        "shop": "car_repair"
      }
    },
    {
      "type": "node",
      "id": 1957113656,
      "lat": 27.7131804,
      "lon": 85.3239773,
      "tags": {
        "name": "Megabyte tours and travels",
        "shop": "travel_agency"
      }
    },
    {
      "type": "node",
      "id": 1957113657,
      "lat": 27.713372,
      "lon": 85.3235475,
      "tags": {
        "name": "Mermaid Boutique",
        "shop": "boutique"
      }
    },
    {
      "type": "node",
      "id": 1957113658,
      "lat": 27.7134053,
      "lon": 85.3234878,
      "tags": {
        "name": "Moon Sun Travels and Tours",
        "shop": "travel_agency"
      }
    },
    {
      "type": "node",
      "id": 1957113659,
      "lat": 27.7137706,
      "lon": 85.3240247,
      "tags": {
        "name": "Nagpokhari Tyre Reparing Center",
        "shop": "car_repair"
      }
    },
    {
      "type": "node",
      "id": 1957113663,
      "lat": 27.7137759,
      "lon": 85.3241523,
      "tags": {
        "name": "Peace Travels and Tours",
        "shop": "travel_agency"
      }
    },
    {
      "type": "node",
      "id": 1957113665,
      "lat": 27.713626,
      "lon": 85.3227934,
      "tags": {
        "name": "Primier Travels and Tours",
        "shop": "travel_agency"
      }
    },
    {
      "type": "node",
      "id": 1957113666,
      "lat": 27.7136327,
      "lon": 85.3228029,
      "tags": {
        "name": "Prism Travels and Tours pvt. ltd.",
        "shop": "travel_agency"
      }
    },
    {
      "type": "node",
      "id": 1957113667,
      "lat": 27.7133666,
      "lon": 85.3235526,
      "tags": {
        "name": "Proficient Travels and Tours",
        "shop": "travel_agency"
      }
    },
    {
      "type": "node",
      "id": 1957113671,
      "lat": 27.7136349,
      "lon": 85.3228556,
      "tags": {
        "name": "Rags and Riches",
        "shop": "clothes"
      }
    },
    {
      "type": "node",
      "id": 1957113672,
      "lat": 27.7134526,
      "lon": 85.3234219,
      "tags": {
        "name": "TAXXI",
        "shop": "clothes"
      }
    },
    {
      "type": "node",
      "id": 1957130653,
      "lat": 27.7136368,
      "lon": 85.3229095,
      "tags": {
        "name": "Parties-R-Uss: The Ultimate Party Store",
        "shop": "variety_store"
      }
    },
    {
      "type": "node",
      "id": 1957130654,
      "lat": 27.7136284,
      "lon": 85.3228349,
      "tags": {
        "name": "Prism Travel and Tours",
        "shop": "travel_agency"
      }
    },
    {
      "type": "node",
      "id": 1957130656,
      "lat": 27.7136179,
      "lon": 85.3228631,
      "tags": {
        "name": "Rags and Riches",
        "shop": "clothes"
      }
    },
    {
      "type": "node",
      "id": 1957158792,
      "lat": 27.7131091,
      "lon": 85.3240193,
      "tags": {
        "name": "Air Express Internatonal Tours and Travels",
        "shop": "travel_agency"
      }
    },
    {
      "type": "node",
      "id": 1957158793,
      "lat": 27.7131564,
      "lon": 85.3238477,
      "tags": {
        "name": "Arihant holidays.com Travel",
        "shop": "travel_agency"
      }
    },
    {
      "type": "node",
      "id": 1957158795,
      "lat": 27.7134264,
      "lon": 85.3233823,
      "tags": {
        "name": "Astha Tours and Travels",
        "shop": "travel_agency"
      }
    },
    {
      "type": "node",
      "id": 1957158798,
      "lat": 27.7131388,
      "lon": 85.3240078,
      "tags": {
        "name": "Bharosa Travels and Tours",
        "shop": "travel_agency"
      }
    },
    {
      "type": "node",
      "id": 1957158800,
      "lat": 27.713774,
      "lon": 85.3241875,
      "tags": {
        "name": "CTS Clothes Store",
        "shop": "clothes"
      }
    },
    {
      "type": "node",
      "id": 1957158803,
      "lat": 27.7139038,
      "lon": 85.3241581,
      "tags": {
        "name": "Danta Tours",
        "shop": "travel_agency"
      }
    },
    {
      "type": "node",
      "id": 1957158807,
      "lat": 27.7131442,
      "lon": 85.3239095,
      "tags": {
        "name": "Kirti Travels and Tours",
        "shop": "travel_agency"
      }
    },
    {
      "type": "node",
      "id": 1957158811,
      "lat": 27.7132288,
      "lon": 85.323795,
      "tags": {
        "name": "M.S. Motorcycle Spare Parts",
        "shop": "motorcycle"
      }
    },
    {
      "type": "node",
      "id": 1957158816,
      "lat": 27.7131724,
      "lon": 85.3240069,
      "tags": {
        "name": "Megabyte Travels and Tours",
        "shop": "travel_agency"
      }
    },
    {
      "type": "node",
      "id": 1957158836,
      "lat": 27.7133705,
      "lon": 85.3235204,
      "tags": {
        "name": "Mermaid The Boutique",
        "shop": "boutique"
      }
    },
    {
      "type": "node",
      "id": 1957158841,
      "lat": 27.7133944,
      "lon": 85.3234328,
      "tags": {
        "name": "Moon and Sun Travels and Tours",
        "shop": "travel_agency"
      }
    },
    {
      "type": "node",
      "id": 1957158845,
      "lat": 27.7137998,
      "lon": 85.3240469,
      "tags": {
        "name": "Naag Pokhari Tyre Repairing Center",
        "repair": "yes",
        "shop": "tyres"
      }
    },
    {
      "type": "node",
      "id": 1957158857,
      "lat": 27.7137889,
      "lon": 85.3240913,
      "tags": {
        "name": "Peace Travels and Tours",
        "shop": "travel_agency"
      }
    },
    {
      "type": "node",
      "id": 1957158860,
      "lat": 27.7138463,
      "lon": 85.3241482,
      "tags": {
        "name": "Prashanti Tours",
        "shop": "travel_agency"
      }
    },
    {
      "type": "node",
      "id": 1957158863,
      "lat": 27.7133363,
      "lon": 85.3235218,
      "tags": {
        "name": "Proficient Travels",
        "shop": "travel_agency"
      }
    },
    {
      "type": "node",
      "id": 1957158897,
      "lat": 27.7138961,
      "lon": 85.3240278,
      "tags": {
        "name": "Rupakot Tours and Travels",
        "shop": "travel_agency"
      }
    },
    {
      "type": "node",
      "id": 1957158906,
      "lat": 27.7135024,
      "lon": 85.3232598,
      "tags": {
        "name": "Taxxi",
        "shop": "clothes"
      }
    },
    {
      "type": "node",
      "id": 1957179276,
      "lat": 27.7141023,
      "lon": 85.3240807,
      "tags": {
        "name": "Dhaulagiri Adventure Travels and Tours",
        "shop": "travel_agency"
      }
    },
    {
      "type": "node",
      "id": 1957179280,
      "lat": 27.7146759,
      "lon": 85.3242392,
      "tags": {
        "name": "Eve Buddha Travels and Tours",
        "shop": "travel_agency"
      }
    },
    {
      "type": "node",
      "id": 1957179289,
      "lat": 27.7146379,
      "lon": 85.3242334,
      "tags": {
        "name": "Little Estella",
        "shop": "clothes"
      }
    },
    {
      "type": "node",
      "id": 1957179296,
      "lat": 27.7145481,
      "lon": 85.3242209,
      "tags": {
        "name": "Mass Travels and Tours",
        "shop": "travel_agency"
      }
    },
    {
      "type": "node",
      "id": 1957179302,
      "lat": 27.7141881,
      "lon": 85.3241136,
      "tags": {
        "name": "Nabil Travels and Tours",
        "shop": "travel_agency"
      }
    },
    {
      "type": "node",
      "id": 1957179306,
      "lat": 27.7146144,
      "lon": 85.3242289,
      "tags": {
        "name": "Poshak: A Designer Hub",
        "shop": "clothes"
      }
    },
    {
      "type": "node",
      "id": 1957179309,
      "lat": 27.7146037,
      "lon": 85.3242289,
      "tags": {
        "name": "Prayas Tours and Travels",
        "shop": "travel_agency"
      }
    },
    {
      "type": "node",
      "id": 1957179313,
      "lat": 27.7143862,
      "lon": 85.3241746,
      "tags": {
        "name": "Surakshya Travels and Tours",
        "shop": "travel_agency"
      }
    },
    {
      "type": "node",
      "id": 1957179341,
      "lat": 27.7140453,
      "lon": 85.3240758,
      "tags": {
        "name": "Tag Tours and Travels",
        "shop": "travel_agency"
      }
    },
    {
      "type": "node",
      "id": 1957179346,
      "lat": 27.7146957,
      "lon": 85.3242744,
      "tags": {
        "name": "The Premier Events",
        "shop": "variety_store"
      }
    },
    {
      "type": "node",
      "id": 1957179351,
      "lat": 27.7146362,
      "lon": 85.3242672,
      "tags": {
        "name": "Venture Himalayan Travels",
        "shop": "travel_agency"
      }
    },
    {
      "type": "node",
      "id": 1957221689,
      "lat": 27.7158829,
      "lon": 85.3245625,
      "tags": {
        "name": "Ace Travels Branch",
        "shop": "travel_agency"
      }
    },
    {
      "type": "node",
      "id": 1957221692,
      "lat": 27.7149702,
      "lon": 85.3243132,
      "tags": {
        "name": "Agni Air Sales Office",
        "shop": "travel_agency"
      }
    },
    {
      "type": "node",
      "id": 1957221697,
      "lat": 27.7150082,
      "lon": 85.3243311,
      "tags": {
        "name": "Baishnavi Services / airasia.com",
        "shop": "travel_agency"
      }
    },
    {
      "type": "node",
      "id": 1957221709,
      "lat": 27.7159507,
      "lon": 85.3245725,
      "tags": {
        "name": "Bhrikuti Himalaya Treks",
        "shop": "travel_agency"
      }
    },
    {
      "type": "node",
      "id": 1957221717,
      "lat": 27.7159905,
      "lon": 85.3245804,
      "tags": {
        "name": "Biman: Bangladesh Air",
        "shop": "travel_agency"
      }
    },
    {
      "type": "node",
      "id": 1957221759,
      "lat": 27.7152689,
      "lon": 85.3243984,
      "tags": {
        "name": "Henna Travels and Tours",
        "shop": "travel_agency"
      }
    },
    {
      "type": "node",
      "id": 1957221765,
      "lat": 27.7161166,
      "lon": 85.3247047,
      "tags": {
        "name": "Kalinta Frames and Decorative Items",
        "shop": "frame"
      }
    },
    {
      "type": "node",
      "id": 1957221776,
      "lat": 27.715892,
      "lon": 85.3245242,
      "tags": {
        "name": "Key Way Travels and Tours",
        "shop": "travel_agency"
      }
    },
    {
      "type": "node",
      "id": 1957221781,
      "lat": 27.7161106,
      "lon": 85.3248093,
      "tags": {
        "name": "Mobillion (NCell Distributor)",
        "shop": "mobile_phone"
      }
    },
    {
      "type": "node",
      "id": 1957221786,
      "lat": 27.7150343,
      "lon": 85.3243322,
      "tags": {
        "name": "Ratna Holidays",
        "shop": "travel_agency"
      }
    },
    {
      "type": "node",
      "id": 1957221811,
      "lat": 27.7148966,
      "lon": 85.3242961,
      "tags": {
        "name": "Square Travels and Tours (Yatra.com)",
        "shop": "travel_agency"
      }
    },
    {
      "type": "node",
      "id": 1957221813,
      "lat": 27.7152301,
      "lon": 85.324391,
      "tags": {
        "building": "yes",
        "name": "Surya Power Eco Solution",
        "shop": "yes"
      }
    },
    {
      "type": "node",
      "id": 1957221818,
      "lat": 27.7153068,
      "lon": 85.3244068,
      "tags": {
        "name": "Treasure Tours Nepal",
        "shop": "travel_agency"
      }
    },
    {
      "type": "node",
      "id": 1957221820,
      "lat": 27.7162077,
      "lon": 85.324727,
      "tags": {
        "name": "Universal Supply Aggency",
        "shop": "variety_store"
      }
    },
    {
      "type": "node",
      "id": 1957235382,
      "lat": 27.7175336,
      "lon": 85.3268909,
      "tags": {
        "building": "yes",
        "name": "Kirloskar Green Pvt. Ltd.",
        "shop": "electronics"
      }
    },
    {
      "type": "node",
      "id": 1957235383,
      "lat": 27.71757,
      "lon": 85.3262924,
      "tags": {
        "name": "Mathema Interiors",
        "shop": "furniture"
      }
    },
    {
      "type": "node",
      "id": 1957235384,
      "lat": 27.7177133,
      "lon": 85.3272215,
      "tags": {
        "name": "Prashanna Beauty Home & Training Center",
        "shop": "beauty"
      }
    },
    {
      "type": "node",
      "id": 1957235385,
      "lat": 27.7175188,
      "lon": 85.3261254,
      "tags": {
        "name": "Quality Kitchen Equipments",
        "shop": "kitchen"
      }
    },
    {
      "type": "node",
      "id": 1957235386,
      "lat": 27.7177268,
      "lon": 85.3272453,
      "tags": {
        "name": "S.R. Fashion Wear",
        "shop": "clothes"
      }
    },
    {
      "type": "node",
      "id": 1957235387,
      "lat": 27.7175829,
      "lon": 85.326371,
      "tags": {
        "name": "Sai Isha Beauty Parlour",
        "shop": "beauty"
      }
    },
    {
      "type": "node",
      "id": 1957235388,
      "lat": 27.7177009,
      "lon": 85.3271325,
      "tags": {
        "name": "She Cares: The Ladies Store",
        "shop": "clothes"
      }
    },
    {
      "type": "node",
      "id": 1957241488,
      "lat": 27.7174204,
      "lon": 85.3254507,
      "tags": {
        "name": "Harvest Moon",
        "shop": "travel_agency"
      }
    },
    {
      "type": "node",
      "id": 1957241506,
      "lat": 27.717397,
      "lon": 85.3252943,
      "tags": {
        "name": "Ying Yang International Travel and Tours Pvt. Ltd.",
        "shop": "travel_agency"
      }
    },
    {
      "type": "node",
      "id": 1960043910,
      "lat": 27.724099,
      "lon": 85.3396509,
      "tags": {
        "name": "Dhumbarahi Mart",
        "shop": "convenience"
      }
    },
    {
      "type": "node",
      "id": 1960049083,
      "lat": 27.7244036,
      "lon": 85.3399501,
      "tags": {
        "shop": "farm"
      }
    },
    {
      "type": "node",
      "id": 1962216827,
      "lat": 27.7238287,
      "lon": 85.3333175,
      "tags": {
        "addr:city": "Kathmandu",
        "addr:country": "NP",
        "addr:postcode": "00977",
        "addr:state": "Central Region",
        "addr:street": "Pragati Marga 1",
        "name": "Fishtail Tours and Travels",
        "shop": "travel_agency"
      }
    },
    {
      "type": "node",
      "id": 1962319683,
      "lat": 27.7305751,
      "lon": 85.3344834,
      "tags": {
        "name": "Ganesh D.N. furniture",
        "shop": "furniture"
      }
    },
    {
      "type": "node",
      "id": 1962319698,
      "lat": 27.7267288,
      "lon": 85.3355292,
      "tags": {
        "name": "Quality chicken shop",
        "shop": "butcher"
      }
    },
    {
      "type": "node",
      "id": 1962320072,
      "lat": 27.7254303,
      "lon": 85.331255,
      "tags": {
        "name": "dream technology",
        "shop": "electronics"
      }
    },
    {
      "type": "node",
      "id": 1962320076,
      "lat": 27.7255945,
      "lon": 85.3314245,
      "tags": {
        "name": "Diamond Motorcycle Workshop",
        "shop": "motorcycle"
      }
    },
    {
      "type": "node",
      "id": 1962320843,
      "lat": 27.7255677,
      "lon": 85.331414,
      "tags": {
        "name": "shree banglamukhi Shirting and suiting",
        "shop": "tailor"
      }
    },
    {
      "type": "node",
      "id": 1962367507,
      "lat": 27.7180453,
      "lon": 85.3342056,
      "tags": {
        "name": "Barahkshetra Auto Servicing",
        "shop": "car_repair"
      }
    },
    {
      "type": "node",
      "id": 1962367573,
      "lat": 27.7169093,
      "lon": 85.3339954,
      "tags": {
        "name": "Satya Sai Motor Workshop",
        "shop": "motorcycle"
      }
    },
    {
      "type": "node",
      "id": 1962367575,
      "lat": 27.7185872,
      "lon": 85.3326504,
      "tags": {
        "name": "S&S Herbal Beauty Parlor",
        "shop": "beauty"
      }
    },
    {
      "type": "node",
      "id": 1962367581,
      "lat": 27.716841,
      "lon": 85.3336484,
      "tags": {
        "name": "Shrestha Press",
        "phone": "+977 01 4439035",
        "shop": "copyshop"
      }
    },
    {
      "type": "node",
      "id": 1964034151,
      "lat": 27.7177964,
      "lon": 85.3166036,
      "tags": {
        "name": "Toyota",
        "shop": "car"
      }
    },
    {
      "type": "node",
      "id": 1964845861,
      "lat": 27.6956034,
      "lon": 85.309492,
      "tags": {
        "addr:city": "Kathmandu",
        "addr:street": "Tripureshwor Marg",
        "name": "MAW Enterprise",
        "shop": "motorcycle"
      }
    },
    {
      "type": "node",
      "id": 1967824784,
      "lat": 27.7224724,
      "lon": 85.3134317,
      "tags": {
        "name": "Bike Point",
        "shop": "motorcycle"
      }
    },
    {
      "type": "node",
      "id": 1967824805,
      "lat": 27.723642,
      "lon": 85.3136911,
      "tags": {
        "name": "M D Motorcycle Workshop",
        "shop": "motorcycle"
      }
    },
    {
      "type": "node",
      "id": 1967824810,
      "lat": 27.7211522,
      "lon": 85.3129852,
      "tags": {
        "name": "P.H.K. Motorcyle Repairing Center",
        "shop": "motorcycle"
      }
    },
    {
      "type": "node",
      "id": 1976184527,
      "lat": 27.7073119,
      "lon": 85.308438,
      "tags": {
        "addr:housenumber": "Kialgal Tole",
        "addr:postcode": "Kathmandu-24",
        "addr:street": "Itumbahal",
        "designation": "shop",
        "name": "Kancha Baniya Impex",
        "shop": "convenience"
      }
    },
    {
      "type": "node",
      "id": 1979178679,
      "lat": 27.7265245,
      "lon": 85.3127918,
      "tags": {
        "name": "Divya Department Store",
        "shop": "convenience"
      }
    },
    {
      "type": "node",
      "id": 1979178687,
      "lat": 27.7245845,
      "lon": 85.3072377,
      "tags": {
        "name": "Prakash Motorcycle Workshop",
        "shop": "motorcycle"
      }
    },
    {
      "type": "node",
      "id": 1979178690,
      "lat": 27.722693,
      "lon": 85.3088121,
      "tags": {
        "name": "Prem Motorcycle Workshop",
        "shop": "motorcycle"
      }
    },
    {
      "type": "node",
      "id": 1979178692,
      "lat": 27.725224,
      "lon": 85.3132293,
      "tags": {
        "name": "Rukmini Mini Mart",
        "shop": "convenience"
      }
    },
    {
      "type": "node",
      "id": 1980624503,
      "lat": 27.7309476,
      "lon": 85.307525,
      "tags": {
        "name": "Karya Binayak Auto Workshop",
        "shop": "car_repair"
      }
    },
    {
      "type": "node",
      "id": 1982131526,
      "lat": 27.7286451,
      "lon": 85.3091281,
      "tags": {
        "name": "M. D. Bajir Motorcycle Workshop",
        "shop": "motorcycle"
      }
    },
    {
      "type": "node",
      "id": 1989508613,
      "lat": 27.6852863,
      "lon": 85.3445942,
      "tags": {
        "name": "Aashra Shringar",
        "shop": "chemist"
      }
    },
    {
      "type": "node",
      "id": 1989508619,
      "lat": 27.6821014,
      "lon": 85.3480009,
      "tags": {
        "name": "Ayushma Cold Store",
        "shop": "convenience"
      }
    },
    {
      "type": "node",
      "id": 1989508621,
      "lat": 27.6812269,
      "lon": 85.3428154,
      "tags": {
        "name": "Baru Computer Shop",
        "shop": "computer"
      }
    },
    {
      "type": "node",
      "id": 1989508622,
      "lat": 27.6812691,
      "lon": 85.3431153,
      "tags": {
        "name": "Bhagwati Store",
        "shop": "convenience"
      }
    },
    {
      "type": "node",
      "id": 1989508624,
      "lat": 27.6832857,
      "lon": 85.3485415,
      "tags": {
        "craft": "electrician",
        "name": "Bikki Electric Center",
        "shop": "electronics"
      }
    },
    {
      "type": "node",
      "id": 1989508625,
      "lat": 27.6824897,
      "lon": 85.3459897,
      "tags": {
        "name": "Bina Store",
        "shop": "convenience"
      }
    },
    {
      "type": "node",
      "id": 1989508628,
      "lat": 27.682582,
      "lon": 85.3460426,
      "tags": {
        "name": "Care Beauty Home",
        "shop": "beauty"
      }
    },
    {
      "type": "node",
      "id": 1989508632,
      "lat": 27.6852664,
      "lon": 85.3445344,
      "tags": {
        "name": "Dilip Service Center",
        "shop": "car_repair"
      }
    },
    {
      "type": "node",
      "id": 1989508636,
      "lat": 27.6812234,
      "lon": 85.3435923,
      "tags": {
        "name": "Gorkahli Store",
        "shop": "convenience"
      }
    },
    {
      "type": "node",
      "id": 1989508637,
      "lat": 27.6831952,
      "lon": 85.3477235,
      "tags": {
        "name": "Hamlet Liquor Store",
        "shop": "alcohol"
      }
    },
    {
      "type": "node",
      "id": 1989508640,
      "lat": 27.6805916,
      "lon": 85.3454157,
      "tags": {
        "name": "Isha Store",
        "shop": "convenience"
      }
    },
    {
      "type": "node",
      "id": 1989508645,
      "lat": 27.6807027,
      "lon": 85.3461794,
      "tags": {
        "name": "Kalika Furnture Center",
        "shop": "furniture"
      }
    },
    {
      "type": "node",
      "id": 1989508648,
      "lat": 27.685806,
      "lon": 85.3453863,
      "tags": {
        "name": "Kantipur Juice Center",
        "shop": "greengrocer"
      }
    },
    {
      "type": "node",
      "id": 1989508649,
      "lat": 27.6830007,
      "lon": 85.3470822,
      "tags": {
        "name": "Kantipur Uniform Pvt. Ltd",
        "shop": "tailor"
      }
    },
    {
      "type": "node",
      "id": 1989508652,
      "lat": 27.6827428,
      "lon": 85.3434544,
      "tags": {
        "name": "Khem Cold Store",
        "shop": "butcher"
      }
    },
    {
      "type": "node",
      "id": 1989508654,
      "lat": 27.6830018,
      "lon": 85.3431704,
      "tags": {
        "name": "Koteshwor Mahadev Auto Workshop",
        "shop": "motorcycle"
      }
    },
    {
      "type": "node",
      "id": 1989508655,
      "lat": 27.683143,
      "lon": 85.3479561,
      "tags": {
        "name": "Kshitiz Bakery and Bhojanalaya",
        "shop": "bakery"
      }
    },
    {
      "type": "node",
      "id": 1989508656,
      "lat": 27.6819207,
      "lon": 85.3480689,
      "tags": {
        "name": "M D Tailor",
        "shop": "tailor"
      }
    },
    {
      "type": "node",
      "id": 1989508657,
      "lat": 27.6852706,
      "lon": 85.3445942,
      "tags": {
        "name": "Ma Dakshinkali Jewellers",
        "shop": "jewelry"
      }
    },
    {
      "type": "node",
      "id": 1989508661,
      "lat": 27.6807106,
      "lon": 85.3469593,
      "tags": {
        "name": "Manakamana Cosmetics Wholesale Pasal",
        "shop": "chemist"
      }
    },
    {
      "type": "node",
      "id": 1989508663,
      "lat": 27.6852943,
      "lon": 85.3455563,
      "tags": {
        "name": "Manakamana Dry Cleaners",
        "shop": "dry_cleaning"
      }
    },
    {
      "type": "node",
      "id": 1989508664,
      "lat": 27.682421,
      "lon": 85.3482071,
      "tags": {
        "name": "Manish Store",
        "shop": "convenience"
      }
    },
    {
      "type": "node",
      "id": 1989508666,
      "lat": 27.6858247,
      "lon": 85.3453817,
      "tags": {
        "name": "Morang Shop",
        "shop": "convenience"
      }
    },
    {
      "type": "node",
      "id": 1989508670,
      "lat": 27.6853547,
      "lon": 85.34556,
      "tags": {
        "name": "New Fashion Hair Cutting",
        "shop": "hairdresser"
      }
    },
    {
      "type": "node",
      "id": 1989508672,
      "lat": 27.6806471,
      "lon": 85.34798,
      "tags": {
        "name": "New Fresh Meat Shop",
        "shop": "butcher"
      }
    },
    {
      "type": "node",
      "id": 1989508674,
      "lat": 27.6829751,
      "lon": 85.3432965,
      "tags": {
        "name": "New Manakamana Dairy and Bakery",
        "shop": "bakery"
      }
    },
    {
      "type": "node",
      "id": 1989508676,
      "lat": 27.6808478,
      "lon": 85.3465811,
      "tags": {
        "name": "Om Bakery Shop",
        "shop": "bakery"
      }
    },
    {
      "type": "node",
      "id": 1989508677,
      "lat": 27.682266,
      "lon": 85.3434501,
      "tags": {
        "name": "Om Kirana Store",
        "shop": "convenience"
      }
    },
    {
      "type": "node",
      "id": 1989508679,
      "lat": 27.6838733,
      "lon": 85.3460638,
      "tags": {
        "name": "Prabinda Motorcycle Workshop",
        "shop": "motorcycle"
      }
    },
    {
      "type": "node",
      "id": 1989508681,
      "lat": 27.6832082,
      "lon": 85.3482295,
      "tags": {
        "name": "Prajwol Sun Chadi",
        "shop": "jewelry"
      }
    },
    {
      "type": "node",
      "id": 1989508682,
      "lat": 27.6843091,
      "lon": 85.3457401,
      "tags": {
        "addr:postcode": "44600",
        "addr:street": "Sudidhanagar Marg",
        "email": "info@nepdroid.com",
        "internet_access": "wlan",
        "name": "Puja Books and Stationary",
        "name:en": "Nepdroid Innovations P. Ltd.",
        "opening_hours": "Su-Fr 09:00-18:00",
        "operator": "Prakash Poudel",
        "phone": "0097715192029",
        "shop": "books",
        "website": "http://nepdroid.com"
      }
    },
    {
      "type": "node",
      "id": 1989508685,
      "lat": 27.6831238,
      "lon": 85.3441028,
      "tags": {
        "name": "R K general store",
        "shop": "department_store"
      }
    },
    {
      "type": "node",
      "id": 1989508689,
      "lat": 27.6807799,
      "lon": 85.3468665,
      "tags": {
        "name": "S n S store",
        "shop": "department_store"
      }
    },
    {
      "type": "node",
      "id": 1989508690,
      "lat": 27.6812667,
      "lon": 85.3437746,
      "tags": {
        "name": "SS Store",
        "shop": "convenience"
      }
    },
    {
      "type": "node",
      "id": 1989508694,
      "lat": 27.6860055,
      "lon": 85.3447741,
      "tags": {
        "name": "Shiv Sankar Sweets",
        "shop": "confectionery"
      }
    },
    {
      "type": "node",
      "id": 1989508696,
      "lat": 27.6831466,
      "lon": 85.3438055,
      "tags": {
        "name": "Shweta General Store",
        "shop": "department_store"
      }
    },
    {
      "type": "node",
      "id": 1989508700,
      "lat": 27.6845896,
      "lon": 85.3445998,
      "tags": {
        "name": "Tamanna Sweet and Chat House",
        "shop": "confectionery;mobile_phone"
      }
    },
    {
      "type": "node",
      "id": 1989508701,
      "lat": 27.6806384,
      "lon": 85.3456456,
      "tags": {
        "name": "Tanu Beauty Parlour",
        "shop": "beauty"
      }
    },
    {
      "type": "node",
      "id": 1989508712,
      "lat": 27.6807928,
      "lon": 85.3462402,
      "tags": {
        "name": "Ujeli Beauty Parlour",
        "shop": "beauty"
      }
    },
    {
      "type": "node",
      "id": 1989508715,
      "lat": 27.6830717,
      "lon": 85.3481003,
      "tags": {
        "name": "Wilers Store",
        "shop": "convenience"
      }
    },
    {
      "type": "node",
      "id": 1989508716,
      "lat": 27.6806926,
      "lon": 85.3474595,
      "tags": {
        "name": "Your Mart",
        "shop": "department_store"
      }
    },
    {
      "type": "node",
      "id": 1989508717,
      "lat": 27.680553,
      "lon": 85.3454963,
      "tags": {
        "shop": "butcher"
      }
    },
    {
      "type": "node",
      "id": 1989508718,
      "lat": 27.6805565,
      "lon": 85.3455742,
      "tags": {
        "shop": "butcher"
      }
    },
    {
      "type": "node",
      "id": 1989508719,
      "lat": 27.6806024,
      "lon": 85.3481257,
      "tags": {
        "shop": "electronics"
      }
    },
    {
      "type": "node",
      "id": 1989508721,
      "lat": 27.6807221,
      "lon": 85.3471253,
      "tags": {
        "shop": "books"
      }
    },
    {
      "type": "node",
      "id": 1989508722,
      "lat": 27.6807447,
      "lon": 85.3473446,
      "tags": {
        "shop": "kitchen"
      }
    },
    {
      "type": "node",
      "id": 1989508723,
      "lat": 27.6807472,
      "lon": 85.3476847,
      "tags": {
        "shop": "greengrocer"
      }
    },
    {
      "type": "node",
      "id": 1989508724,
      "lat": 27.6807858,
      "lon": 85.3448264,
      "tags": {
        "shop": "travel_agency"
      }
    },
    {
      "type": "node",
      "id": 1989508725,
      "lat": 27.6807917,
      "lon": 85.3447973,
      "tags": {
        "shop": "convenience"
      }
    },
    {
      "type": "node",
      "id": 1989508726,
      "lat": 27.6808026,
      "lon": 85.3467172,
      "tags": {
        "shop": "motorcycle"
      }
    },
    {
      "type": "node",
      "id": 1989508727,
      "lat": 27.6808385,
      "lon": 85.346622,
      "tags": {
        "shop": "electronics"
      }
    },
    {
      "type": "node",
      "id": 1989508728,
      "lat": 27.6808408,
      "lon": 85.3466049,
      "tags": {
        "shop": "convenience"
      }
    },
    {
      "type": "node",
      "id": 1989508729,
      "lat": 27.6808771,
      "lon": 85.3446018,
      "tags": {
        "shop": "convenience"
      }
    },
    {
      "type": "node",
      "id": 1989508766,
      "lat": 27.6816047,
      "lon": 85.3441727,
      "tags": {
        "shop": "convenience"
      }
    },
    {
      "type": "node",
      "id": 1989508788,
      "lat": 27.6821163,
      "lon": 85.3480112,
      "tags": {
        "shop": "beauty"
      }
    },
    {
      "type": "node",
      "id": 1989508806,
      "lat": 27.6829194,
      "lon": 85.3429601,
      "tags": {
        "shop": "convenience"
      }
    },
    {
      "type": "node",
      "id": 1989508808,
      "lat": 27.6830018,
      "lon": 85.3431361,
      "tags": {
        "shop": "convenience"
      }
    },
    {
      "type": "node",
      "id": 1989508809,
      "lat": 27.6830256,
      "lon": 85.3474133,
      "tags": {
        "shop": "kitchen"
      }
    },
    {
      "type": "node",
      "id": 1989508810,
      "lat": 27.6830694,
      "lon": 85.3475049,
      "tags": {
        "shop": "greengrocer"
      }
    },
    {
      "type": "node",
      "id": 1989508817,
      "lat": 27.6832173,
      "lon": 85.3482977,
      "tags": {
        "shop": "butcher"
      }
    },
    {
      "type": "node",
      "id": 1989508825,
      "lat": 27.6836609,
      "lon": 85.3445732,
      "tags": {
        "shop": "butcher"
      }
    },
    {
      "type": "node",
      "id": 1989508827,
      "lat": 27.6840151,
      "lon": 85.3445608,
      "tags": {
        "shop": "kitchen"
      }
    },
    {
      "type": "node",
      "id": 1989508829,
      "lat": 27.684472,
      "lon": 85.3445819,
      "tags": {
        "shop": "jewelry"
      }
    },
    {
      "type": "node",
      "id": 1989508831,
      "lat": 27.684603,
      "lon": 85.3446004,
      "tags": {
        "shop": "greengrocer"
      }
    },
    {
      "type": "node",
      "id": 1989508832,
      "lat": 27.6846136,
      "lon": 85.344574,
      "tags": {
        "shop": "butcher"
      }
    },
    {
      "type": "node",
      "id": 1991893661,
      "lat": 27.7375261,
      "lon": 85.3345358,
      "tags": {
        "name": "Honda",
        "shop": "car"
      }
    },
    {
      "type": "node",
      "id": 1993365049,
      "lat": 27.7495637,
      "lon": 85.3453451,
      "tags": {
        "name": "Road House Grocery Shopping",
        "shop": "department_store",
        "wheelchair": "limited"
      }
    },
    {
      "type": "node",
      "id": 1996611827,
      "lat": 27.6910154,
      "lon": 85.3344024,
      "tags": {
        "name": "Ace Travels",
        "shop": "travel_agency",
        "source": "NextView"
      }
    },
    {
      "type": "node",
      "id": 1996636034,
      "lat": 27.6970018,
      "lon": 85.3376678,
      "tags": {
        "name": "Time Out Bakery, Sweets and Cafe",
        "shop": "bakery"
      }
    },
    {
      "type": "node",
      "id": 1996636075,
      "lat": 27.6969104,
      "lon": 85.3376506,
      "tags": {
        "name": "My Shop Laundry",
        "shop": "laundry"
      }
    },
    {
      "type": "node",
      "id": 1996650868,
      "lat": 27.7083364,
      "lon": 85.3317752,
      "tags": {
        "name": "Easy Cuts",
        "shop": "hairdresser"
      }
    },
    {
      "type": "node",
      "id": 2001058352,
      "lat": 27.7239624,
      "lon": 85.3311875,
      "tags": {
        "shop": "hardware"
      }
    },
    {
      "type": "node",
      "id": 2001289201,
      "lat": 27.7241764,
      "lon": 85.3311833,
      "tags": {
        "name": "Maple Furnishing House",
        "shop": "furniture"
      }
    },
    {
      "type": "node",
      "id": 2002392579,
      "lat": 27.7352918,
      "lon": 85.3179198,
      "tags": {
        "name": "Vegetable shops",
        "shop": "greengrocer"
      }
    },
    {
      "type": "node",
      "id": 2002501547,
      "lat": 27.7359749,
      "lon": 85.317618,
      "tags": {
        "name": "Deez Store",
        "shop": "convenience"
      }
    },
    {
      "type": "node",
      "id": 2002501549,
      "lat": 27.7392188,
      "lon": 85.3140098,
      "tags": {
        "name": "Gandaki Supermarket",
        "shop": "convenience"
      }
    },
    {
      "type": "node",
      "id": 2002501569,
      "lat": 27.7347208,
      "lon": 85.3159561,
      "tags": {
        "name": "Opera Tailoring",
        "shop": "tailor"
      }
    },
    {
      "type": "node",
      "id": 2002501574,
      "lat": 27.7346528,
      "lon": 85.3152344,
      "tags": {
        "name": "Shrestha TVS",
        "shop": "motorcycle"
      }
    },
    {
      "type": "node",
      "id": 2006086148,
      "lat": 27.7163434,
      "lon": 85.3309376,
      "tags": {
        "name": "Pramod Hair Saloon",
        "shop": "hairdresser"
      }
    },
    {
      "type": "node",
      "id": 2006091214,
      "lat": 27.7166214,
      "lon": 85.3303355,
      "tags": {
        "name": "Opple Lightening",
        "shop": "electronics"
      }
    },
    {
      "type": "node",
      "id": 2006108107,
      "lat": 27.7175259,
      "lon": 85.3290931,
      "tags": {
        "name": "Acme Holiday Tours Pvt. Ltd.",
        "shop": "travel_agency"
      }
    },
    {
      "type": "node",
      "id": 2006108108,
      "lat": 27.717528,
      "lon": 85.3290823,
      "tags": {
        "name": "Kamana Tres and Expeditions Pvt.",
        "shop": "travel_agency"
      }
    },
    {
      "type": "node",
      "id": 2006121026,
      "lat": 27.7175459,
      "lon": 85.3286715,
      "tags": {
        "name": "Bicycle Repair Centre",
        "service:bicycle:repair": "yes",
        "shop": "bicycle"
      }
    },
    {
      "type": "node",
      "id": 2006121027,
      "lat": 27.7176461,
      "lon": 85.3286626,
      "tags": {
        "description": "butcher shop",
        "name": "Narayan Meat Shop",
        "shop": "butcher"
      }
    },
    {
      "type": "node",
      "id": 2006124078,
      "lat": 27.7125217,
      "lon": 85.3287994,
      "tags": {
        "name": "Dev Corner",
        "shop": "convenience"
      }
    },
    {
      "type": "node",
      "id": 2006124080,
      "lat": 27.7116615,
      "lon": 85.3287447,
      "tags": {
        "name": "Exodus Trek and Expeditions Pvt Ltd Nepal",
        "shop": "travel_agency"
      }
    },
    {
      "type": "node",
      "id": 2006124081,
      "lat": 27.7116228,
      "lon": 85.3287622,
      "tags": {
        "name": "Exodus Trek and Tours Pvt Ltd Nepal",
        "shop": "travel_agency"
      }
    },
    {
      "type": "node",
      "id": 2006124084,
      "lat": 27.7109693,
      "lon": 85.3289421,
      "tags": {
        "name": "Shristi Travel and tours pvt. ltd",
        "shop": "travel_agency"
      }
    },
    {
      "type": "node",
      "id": 2006134194,
      "lat": 27.717593,
      "lon": 85.328429,
      "tags": {
        "name": "Rajendra Hair Dresser Centre",
        "shop": "hairdresser"
      }
    },
    {
      "type": "node",
      "id": 2006144706,
      "lat": 27.7200142,
      "lon": 85.3302947,
      "tags": {
        "name": "Bhagwati Sofa Repair",
        "repair": "yes",
        "shop": "furniture"
      }
    },
    {
      "type": "node",
      "id": 2006144714,
      "lat": 27.7204557,
      "lon": 85.3314272,
      "tags": {
        "name": "Fashion Cocktail",
        "shop": "boutique"
      }
    },
    {
      "type": "node",
      "id": 2006144715,
      "lat": 27.7201049,
      "lon": 85.3312562,
      "tags": {
        "name": "Gold Plus Float Glass",
        "shop": "trade",
        "trade": "mirrors"
      }
    },
    {
      "type": "node",
      "id": 2006144716,
      "lat": 27.7187795,
      "lon": 85.328169,
      "tags": {
        "name": "Hobbies Beauty Care",
        "shop": "beauty"
      }
    },
    {
      "type": "node",
      "id": 2006144721,
      "lat": 27.7225401,
      "lon": 85.3311641,
      "tags": {
        "name": "Ajaya Motorcycle Workshop",
        "shop": "motorcycle"
      }
    },
    {
      "type": "node",
      "id": 2006144722,
      "lat": 27.7200001,
      "lon": 85.331065,
      "tags": {
        "name": "Orange Bakery",
        "shop": "bakery"
      }
    },
    {
      "type": "node",
      "id": 2006144724,
      "lat": 27.7186399,
      "lon": 85.3281193,
      "tags": {
        "name": "Rosewood Furniture",
        "shop": "furniture"
      }
    },
    {
      "type": "node",
      "id": 2006144728,
      "lat": 27.7199966,
      "lon": 85.3307638,
      "tags": {
        "name": "Siddhababa Motorcycle Workshop",
        "repair": "yes",
        "shop": "motorcycle"
      }
    },
    {
      "type": "node",
      "id": 2006144729,
      "lat": 27.7198907,
      "lon": 85.3284929,
      "tags": {
        "name": "Speical Tea - Nepal",
        "shop": "tea"
      }
    },
    {
      "type": "node",
      "id": 2006144731,
      "lat": 27.7204683,
      "lon": 85.3314314,
      "tags": {
        "name": "Tranquility Spa",
        "shop": "beauty"
      }
    },
    {
      "type": "node",
      "id": 2006144733,
      "lat": 27.7207492,
      "lon": 85.3314591,
      "tags": {
        "name": "Zeeva Fresh Organic Food and Dietary Suppliment",
        "organic": "yes",
        "shop": "greengrocer"
      }
    },
    {
      "type": "node",
      "id": 2006145376,
      "lat": 27.717292,
      "lon": 85.3278786,
      "tags": {
        "name": "Starlight Dry Cleaner",
        "shop": "dry_cleaning"
      }
    },
    {
      "type": "node",
      "id": 2006156677,
      "lat": 27.718993,
      "lon": 85.3282062,
      "tags": {
        "name": "Nbuddha Transport service Pvt",
        "shop": "car"
      }
    },
    {
      "type": "node",
      "id": 2007699288,
      "lat": 27.7202283,
      "lon": 85.324715,
      "tags": {
        "addr:city": "Kathmandu",
        "addr:country": "NP",
        "addr:postcode": "00977",
        "addr:state": "Central Region",
        "addr:street": "Nil Sarsaswati Marga",
        "description": "Internet cafe",
        "internet_access": "service",
        "name": "Neptune Cyber",
        "shop": "computer",
        "website": "www.netmax.com.np"
      }
    },
    {
      "type": "node",
      "id": 2008240784,
      "lat": 27.7276649,
      "lon": 85.3460171,
      "tags": {
        "name": "Jimee Grocer",
        "shop": "convenience"
      }
    },
    {
      "type": "node",
      "id": 2017907828,
      "lat": 27.7258485,
      "lon": 85.3357174,
      "tags": {
        "name": "Berina Beauty Parlor",
        "shop": "beauty"
      }
    },
    {
      "type": "node",
      "id": 2017907832,
      "lat": 27.7259461,
      "lon": 85.336913,
      "tags": {
        "name": "Handsome and Beauty Parlor",
        "shop": "beauty"
      }
    },
    {
      "type": "node",
      "id": 2017923134,
      "lat": 27.7183756,
      "lon": 85.3316279,
      "tags": {
        "name": "Flowers & More",
        "shop": "florist"
      }
    },
    {
      "type": "node",
      "id": 2017923382,
      "lat": 27.7269822,
      "lon": 85.3356438,
      "tags": {
        "name": "Sanita Beauty Parlor",
        "shop": "hairdresser"
      }
    },
    {
      "type": "node",
      "id": 2017924363,
      "lat": 27.718353,
      "lon": 85.3317299,
      "tags": {
        "name": "Cyber",
        "shop": "hifi"
      }
    },
    {
      "type": "node",
      "id": 2017925178,
      "lat": 27.7183767,
      "lon": 85.3314764,
      "tags": {
        "name": "Bhat Bhatini Dry Cleaners & Laundry",
        "shop": "laundry"
      }
    },
    {
      "type": "node",
      "id": 2017932761,
      "lat": 27.718905,
      "lon": 85.3325882,
      "tags": {
        "name": "Beauty Care Parlour",
        "shop": "hairdresser"
      }
    },
    {
      "type": "node",
      "id": 2019710024,
      "lat": 27.7463809,
      "lon": 85.3353713,
      "tags": {
        "addr:street": "Dhapasi Marg",
        "name": "Narayani Nursery",
        "shop": "garden_centre"
      }
    },
    {
      "type": "node",
      "id": 2021203134,
      "lat": 27.7244483,
      "lon": 85.3372731,
      "tags": {
        "name": "Aalam Electronics",
        "name:en": "Alam Electronics",
        "shop": "electronics"
      }
    },
    {
      "type": "node",
      "id": 2024356145,
      "lat": 27.7303685,
      "lon": 85.3442768,
      "tags": {
        "name": "New Mahalaxmi Fresh House",
        "shop": "butcher"
      }
    },
    {
      "type": "node",
      "id": 2027894714,
      "lat": 27.6898877,
      "lon": 85.3290038,
      "tags": {
        "name": "Tex World",
        "shop": "supermarket"
      }
    },
    {
      "type": "node",
      "id": 2027894752,
      "lat": 27.6900187,
      "lon": 85.3287232,
      "tags": {
        "name": "Samsung Plaza",
        "shop": "supermarket",
        "toilets:wheelchair": "no",
        "wheelchair": "limited"
      }
    },
    {
      "type": "node",
      "id": 2028363750,
      "lat": 27.6888666,
      "lon": 85.3421412,
      "tags": {
        "name": "Monika Dry and Laundry Center",
        "shop": "laundry"
      }
    },
    {
      "type": "node",
      "id": 2028415798,
      "lat": 27.6910854,
      "lon": 85.3434045,
      "tags": {
        "name": "Bg Stationary and Communication",
        "shop": "stationery"
      }
    },
    {
      "type": "node",
      "id": 2028415799,
      "lat": 27.6910504,
      "lon": 85.3432032,
      "tags": {
        "name": "Bhakta Shoe Shop",
        "shop": "shoes"
      }
    },
    {
      "type": "node",
      "id": 2028415806,
      "lat": 27.6911973,
      "lon": 85.3433357,
      "tags": {
        "name": "Vintage Wine Gallery",
        "shop": "alcohol"
      }
    },
    {
      "type": "node",
      "id": 2028653932,
      "lat": 27.6981316,
      "lon": 85.3416803,
      "tags": {
        "shop": "car_repair"
      }
    },
    {
      "type": "node",
      "id": 2028654284,
      "lat": 27.7002746,
      "lon": 85.3416823,
      "tags": {
        "shop": "car_repair"
      }
    },
    {
      "type": "node",
      "id": 2029467888,
      "lat": 27.7227662,
      "lon": 85.3209747,
      "tags": {
        "name": "Blue Moon Super Market",
        "shop": "supermarket"
      }
    },
    {
      "type": "node",
      "id": 2030412960,
      "lat": 27.7003941,
      "lon": 85.3417206,
      "tags": {
        "shop": "alcohol"
      }
    },
    {
      "type": "node",
      "id": 2030412961,
      "lat": 27.7009016,
      "lon": 85.3415234,
      "tags": {
        "shop": "jewelry"
      }
    },
    {
      "type": "node",
      "id": 2030412962,
      "lat": 27.7008788,
      "lon": 85.3415809,
      "tags": {
        "shop": "alcohol"
      }
    },
    {
      "type": "node",
      "id": 2030412963,
      "lat": 27.7004432,
      "lon": 85.342977,
      "tags": {
        "shop": "laundry"
      }
    },
    {
      "type": "node",
      "id": 2031401963,
      "lat": 27.6934812,
      "lon": 85.3325062,
      "tags": {
        "building": "yes",
        "name": "Unique Auto Center",
        "phone": "014462766",
        "shop": "car_repair"
      }
    },
    {
      "type": "node",
      "id": 2031624611,
      "lat": 27.7235303,
      "lon": 85.3242707,
      "tags": {
        "shop": "convenience"
      }
    },
    {
      "type": "node",
      "id": 2034533038,
      "lat": 27.7204751,
      "lon": 85.331744,
      "tags": {
        "name": "Kora Adventure",
        "shop": "outdoor"
      }
    },
    {
      "type": "node",
      "id": 2038027325,
      "lat": 27.680665,
      "lon": 85.3475672,
      "tags": {
        "name": "New Pushpanjali Hair Dresser Saloon",
        "shop": "hairdresser"
      }
    },
    {
      "type": "node",
      "id": 2057191154,
      "lat": 27.7100965,
      "lon": 85.3134254,
      "tags": {
        "name": "High Definition",
        "shop": "hifi"
      }
    },
    {
      "type": "node",
      "id": 2059452650,
      "lat": 27.7101585,
      "lon": 85.319246,
      "tags": {
        "name": "Samsung Mobile Showroom",
        "shop": "mobile_phone"
      }
    },
    {
      "type": "node",
      "id": 2066055286,
      "lat": 27.7020682,
      "lon": 85.30392,
      "tags": {
        "shop": "convenience"
      }
    },
    {
      "type": "node",
      "id": 2066055289,
      "lat": 27.7027442,
      "lon": 85.30443,
      "tags": {
        "shop": "butcher"
      }
    },
    {
      "type": "node",
      "id": 2066081545,
      "lat": 27.7020833,
      "lon": 85.3042136,
      "tags": {
        "shop": "convenience"
      }
    },
    {
      "type": "node",
      "id": 2066081548,
      "lat": 27.7021006,
      "lon": 85.3042199,
      "tags": {
        "shop": "tailor"
      }
    },
    {
      "type": "node",
      "id": 2066081552,
      "lat": 27.7021429,
      "lon": 85.304238,
      "tags": {
        "repair": "yes",
        "shop": "electronics"
      }
    },
    {
      "type": "node",
      "id": 2066081554,
      "lat": 27.702162,
      "lon": 85.3042514,
      "tags": {
        "name": "Juwel Aquarium",
        "pet": "fish",
        "shop": "pet"
      }
    },
    {
      "type": "node",
      "id": 2066112670,
      "lat": 27.702543,
      "lon": 85.3045307,
      "tags": {
        "shop": "stationery"
      }
    },
    {
      "type": "node",
      "id": 2066255665,
      "lat": 27.7035518,
      "lon": 85.3055314,
      "tags": {
        "name": "Laligurans Bakery",
        "shop": "bakery"
      }
    },
    {
      "type": "node",
      "id": 2069873134,
      "lat": 27.7098059,
      "lon": 85.3149397,
      "tags": {
        "name": "Mandala Book Point",
        "opening_hours": "Mo-Fr 09:00-19:00",
        "shop": "books"
      }
    },
    {
      "type": "node",
      "id": 2069897259,
      "lat": 27.7036541,
      "lon": 85.3057164,
      "tags": {
        "shop": "convenience"
      }
    },
    {
      "type": "node",
      "id": 2069967897,
      "lat": 27.7025821,
      "lon": 85.3044706,
      "tags": {
        "shop": "bakery"
      }
    },
    {
      "type": "node",
      "id": 2071203266,
      "lat": 27.7280883,
      "lon": 85.3245889,
      "tags": {
        "addr:city": "Kathmandu",
        "addr:country": "NP",
        "addr:postcode": "00977",
        "addr:state": "Madhyamanchal",
        "addr:street": "Lazimpath Road",
        "brand": "Kona",
        "name": "Bike Gallery",
        "shop": "bicycle"
      }
    },
    {
      "type": "node",
      "id": 2071207342,
      "lat": 27.7280232,
      "lon": 85.3246889,
      "tags": {
        "addr:city": "Kathmandu",
        "addr:country": "NP",
        "addr:postcode": "00977",
        "addr:state": "Madhyamanchal",
        "addr:street": "Lazimpath Road",
        "name": "Shresha Aquarium 2",
        "pet": "fish",
        "shop": "pet"
      }
    },
    {
      "type": "node",
      "id": 2071212463,
      "lat": 27.7281181,
      "lon": 85.3246862,
      "tags": {
        "addr:city": "Kathmandu",
        "addr:country": "NP",
        "addr:postcode": "00977",
        "addr:state": "Madhyamanchal",
        "addr:street": "Lazimpath Road",
        "description": "Vaccination, Operation Major & Minor Treatment, Pup sales and purchase, Dog Training, Home Service Available",
        "name": "Mahanagar Animals Research Center Pvt Ltd",
        "phone": "4431069, 9851059873",
        "shop": "pet"
      }
    },
    {
      "type": "node",
      "id": 2071315782,
      "lat": 27.7314564,
      "lon": 85.3259358,
      "tags": {
        "name": "Air Globe Tours & Travels PLtd",
        "shop": "travel_agency",
        "website": "www.airglobetravels.com"
      }
    },
    {
      "type": "node",
      "id": 2071315789,
      "lat": 27.7312366,
      "lon": 85.3258484,
      "tags": {
        "name": "Manaslu Trends & Tours",
        "shop": "travel_agency"
      }
    },
    {
      "type": "node",
      "id": 2071321903,
      "lat": 27.7311947,
      "lon": 85.3267595,
      "tags": {
        "produce": "dairy",
        "shop": "farm"
      }
    },
    {
      "type": "node",
      "id": 2071332644,
      "lat": 27.7294198,
      "lon": 85.330991,
      "tags": {
        "course": "Language",
        "opening_hours": "5:00-2:00",
        "shop": "stationery"
      }
    },
    {
      "type": "node",
      "id": 2071332671,
      "lat": 27.7294657,
      "lon": 85.3310045,
      "tags": {
        "opening_hours": "6:00-20:00",
        "shop": "yes"
      }
    },
    {
      "type": "node",
      "id": 2071332682,
      "lat": 27.7307562,
      "lon": 85.3296722,
      "tags": {
        "name": "Shri Krishna Bakery",
        "shop": "bakery"
      }
    },
    {
      "type": "node",
      "id": 2071332689,
      "lat": 27.7308844,
      "lon": 85.3295878,
      "tags": {
        "shop": "convenience"
      }
    },
    {
      "type": "node",
      "id": 2072662336,
      "lat": 27.7303051,
      "lon": 85.3251657,
      "tags": {
        "name": "Face Beauty Parlour",
        "shop": "beauty"
      }
    },
    {
      "type": "node",
      "id": 2073153209,
      "lat": 27.7305286,
      "lon": 85.3312738,
      "tags": {
        "name": "Bibhusha Gift Shop",
        "shop": "gift"
      }
    },
    {
      "type": "node",
      "id": 2073153215,
      "lat": 27.7301456,
      "lon": 85.3311458,
      "tags": {
        "female": "yes",
        "male": "no",
        "name": "Shahnaz Beauty Parlor",
        "shop": "hairdresser"
      }
    },
    {
      "type": "node",
      "id": 2073153216,
      "lat": 27.7301977,
      "lon": 85.3302886,
      "tags": {
        "addr:street": "Thirbam Sadak",
        "internet_access": "wlan",
        "name:en": "Hygienic Meat Shop, Baluwatar",
        "shop": "butcher"
      }
    },
    {
      "type": "node",
      "id": 2073153217,
      "lat": 27.7303344,
      "lon": 85.331095,
      "tags": {
        "shop": "convenience"
      }
    },
    {
      "type": "node",
      "id": 2073153218,
      "lat": 27.7303703,
      "lon": 85.3311133,
      "tags": {
        "shop": "convenience"
      }
    },
    {
      "type": "node",
      "id": 2073153220,
      "lat": 27.7312442,
      "lon": 85.3314526,
      "tags": {
        "shop": "convenience"
      }
    },
    {
      "type": "node",
      "id": 2074213094,
      "lat": 27.7238914,
      "lon": 85.3220599,
      "tags": {
        "name": "Khusboo Fashion",
        "shop": "tailor"
      }
    },
    {
      "type": "node",
      "id": 2074228092,
      "lat": 27.7226947,
      "lon": 85.3249452,
      "tags": {
        "name": "Korean Style Hair Style",
        "shop": "hairdresser"
      }
    },
    {
      "type": "node",
      "id": 2074228093,
      "lat": 27.7233834,
      "lon": 85.3242839,
      "tags": {
        "name": "Manakamana Stationery",
        "shop": "stationery"
      }
    },
    {
      "type": "node",
      "id": 2074228094,
      "lat": 27.7213672,
      "lon": 85.3246903,
      "tags": {
        "shop": "convenience"
      }
    },
    {
      "type": "node",
      "id": 2074228095,
      "lat": 27.7224746,
      "lon": 85.3249942,
      "tags": {
        "shop": "convenience"
      }
    },
    {
      "type": "node",
      "id": 2074278688,
      "lat": 27.7306435,
      "lon": 85.3257796,
      "tags": {
        "name": "Centre Point Department Store P.ltd",
        "shop": "department_store"
      }
    },
    {
      "type": "node",
      "id": 2074278690,
      "lat": 27.7297182,
      "lon": 85.3290868,
      "tags": {
        "name": "Kailash Treks P.Ltd",
        "shop": "travel_agency"
      }
    },
    {
      "type": "node",
      "id": 2074278691,
      "lat": 27.7297545,
      "lon": 85.3291232,
      "tags": {
        "name": "Manaslu Travels & Tours",
        "shop": "travel_agency"
      }
    },
    {
      "type": "node",
      "id": 2074278694,
      "lat": 27.7305433,
      "lon": 85.3259617,
      "tags": {
        "name": "Youth Opticals",
        "shop": "optician"
      }
    },
    {
      "type": "node",
      "id": 2074297794,
      "lat": 27.7203219,
      "lon": 85.3262327,
      "tags": {
        "name": "Nepaliko Store",
        "shop": "convenience"
      }
    },
    {
      "type": "node",
      "id": 2074297796,
      "lat": 27.7205209,
      "lon": 85.3244564,
      "tags": {
        "name": "Ruksana Tailor",
        "shop": "tailor"
      }
    },
    {
      "type": "node",
      "id": 2074297799,
      "lat": 27.7204404,
      "lon": 85.3244242,
      "tags": {
        "shop": "convenience"
      }
    },
    {
      "type": "node",
      "id": 2074297801,
      "lat": 27.7205178,
      "lon": 85.3244742,
      "tags": {
        "shop": "bakery"
      }
    },
    {
      "type": "node",
      "id": 2074306361,
      "lat": 27.7216239,
      "lon": 85.3278218,
      "tags": {
        "name": "Kalika Mai Tyre Puncture",
        "shop": "car_repair"
      }
    },
    {
      "type": "node",
      "id": 2074306362,
      "lat": 27.7215402,
      "lon": 85.3278555,
      "tags": {
        "name": "Lama Bakery",
        "shop": "bakery"
      }
    },
    {
      "type": "node",
      "id": 2074412075,
      "lat": 27.7256826,
      "lon": 85.323382,
      "tags": {
        "name": "Spark and Shine Nail Spa",
        "phone": "014005555 / 9851132433",
        "shop": "beauty"
      }
    },
    {
      "type": "node",
      "id": 2077086063,
      "lat": 27.725051,
      "lon": 85.3609449,
      "tags": {
        "name": "Himalayan Hyolmo Cold Store",
        "name:en": "Himalayan Hyolmo Cold Store",
        "shop": "convenience"
      }
    },
    {
      "type": "node",
      "id": 2077194390,
      "lat": 27.7400874,
      "lon": 85.3289486,
      "tags": {
        "name": "Basundhara Auto Works",
        "shop": "car_repair"
      }
    },
    {
      "type": "node",
      "id": 2077194589,
      "lat": 27.7421381,
      "lon": 85.3311466,
      "tags": {
        "name": "Basundhara Departmental Store",
        "shop": "department_store"
      }
    },
    {
      "type": "node",
      "id": 2077197535,
      "lat": 27.7403464,
      "lon": 85.3295578,
      "tags": {
        "name": "Bogati Books And Stationary",
        "shop": "books"
      }
    },
    {
      "type": "node",
      "id": 2077198886,
      "lat": 27.7404354,
      "lon": 85.329657,
      "tags": {
        "name": "Muktinath Liquior Shope",
        "shop": "alcohol"
      }
    },
    {
      "type": "node",
      "id": 2077212020,
      "lat": 27.7411302,
      "lon": 85.330654,
      "tags": {
        "name": "Quick Kitchen And Interior P. LTD",
        "shop": "kitchen"
      }
    },
    {
      "type": "node",
      "id": 2077234126,
      "lat": 27.7365599,
      "lon": 85.3275433,
      "tags": {
        "name": "Familiar Beauty Parlour",
        "shop": "beauty"
      }
    },
    {
      "type": "node",
      "id": 2077234129,
      "lat": 27.735952,
      "lon": 85.3282554,
      "tags": {
        "name": "Raghav Electronic Centre",
        "shop": "electronics"
      }
    },
    {
      "type": "node",
      "id": 2077234135,
      "lat": 27.7357467,
      "lon": 85.3281658,
      "tags": {
        "name": "Yeti Stationery",
        "shop": "stationery"
      }
    },
    {
      "type": "node",
      "id": 2077234173,
      "lat": 27.7365575,
      "lon": 85.327552,
      "tags": {
        "name": "Astha Cyber",
        "phone": "014384528",
        "shop": "computer"
      }
    },
    {
      "type": "node",
      "id": 2077234177,
      "lat": 27.7366345,
      "lon": 85.3275799,
      "tags": {
        "shop": "furniture"
      }
    },
    {
      "type": "node",
      "id": 2077234901,
      "lat": 27.7405808,
      "lon": 85.3355381,
      "tags": {
        "name": "Honda servicing centre",
        "phone": "+977014721364",
        "shop": "motorcycle"
      }
    },
    {
      "type": "node",
      "id": 2077234902,
      "lat": 27.7404637,
      "lon": 85.3357796,
      "tags": {
        "name": "Honda showroom",
        "shop": "motorcycle"
      }
    },
    {
      "type": "node",
      "id": 2077234903,
      "lat": 27.7404934,
      "lon": 85.3357104,
      "tags": {
        "name": "New Radiance Decor",
        "shop": "interior_decoration",
        "toilets:wheelchair": "yes",
        "wheelchair": "yes"
      }
    },
    {
      "type": "node",
      "id": 2077247157,
      "lat": 27.7383458,
      "lon": 85.324772,
      "tags": {
        "name": "Jay Ma Bhavani Sweet Shop",
        "shop": "confectionery"
      }
    },
    {
      "type": "node",
      "id": 2077247175,
      "lat": 27.7405946,
      "lon": 85.3264708,
      "tags": {
        "shop": "gift"
      }
    },
    {
      "type": "node",
      "id": 2077247187,
      "lat": 27.7399363,
      "lon": 85.3258181,
      "tags": {
        "name": "swarmin commodity service pvt. ltd",
        "shop": "supermarket"
      }
    },
    {
      "type": "node",
      "id": 2077258816,
      "lat": 27.7380715,
      "lon": 85.323995,
      "tags": {
        "name": "Barahi motors PVT.LTD",
        "shop": "motorcycle"
      }
    },
    {
      "type": "node",
      "id": 2078261849,
      "lat": 27.7403496,
      "lon": 85.329578,
      "tags": {
        "name": "Bhagwati Books and Stationary",
        "shop": "stationery"
      }
    },
    {
      "type": "node",
      "id": 2078261850,
      "lat": 27.7395587,
      "lon": 85.3279962,
      "tags": {
        "name": "Bleeze Auto Servicing Center",
        "shop": "car_repair"
      }
    },
    {
      "type": "node",
      "id": 2078650185,
      "lat": 27.7423948,
      "lon": 85.331886,
      "tags": {
        "name": "Basundhara Mart",
        "shop": "convenience"
      }
    },
    {
      "type": "node",
      "id": 2079502755,
      "lat": 27.7423699,
      "lon": 85.3331233,
      "tags": {
        "name": "New Raj Tailoring Centre",
        "shop": "tailor"
      }
    },
    {
      "type": "node",
      "id": 2079534298,
      "lat": 27.7369183,
      "lon": 85.3266278,
      "tags": {
        "name": "Annapurna Sun Chadi Pasal",
        "shop": "jewelry"
      }
    },
    {
      "type": "node",
      "id": 2079534299,
      "lat": 27.7368991,
      "lon": 85.326656,
      "tags": {
        "name": "Cipi Beauty Parlor",
        "shop": "beauty"
      }
    },
    {
      "type": "node",
      "id": 2079575200,
      "lat": 27.7353737,
      "lon": 85.3210932,
      "tags": {
        "name": "Krishna Tiles and Sanitary House",
        "shop": "trade",
        "trade": "sanitaryware"
      }
    },
    {
      "type": "node",
      "id": 2079575201,
      "lat": 27.735389,
      "lon": 85.3211533,
      "tags": {
        "name": "L.P. Itta Udhyog",
        "shop": "trade",
        "trade": "bricks"
      }
    },
    {
      "type": "node",
      "id": 2079575203,
      "lat": 27.7355512,
      "lon": 85.3214598,
      "tags": {
        "name": "Panchakanya Hardware",
        "shop": "hardware"
      }
    },
    {
      "type": "node",
      "id": 2079575204,
      "lat": 27.7350898,
      "lon": 85.3203829,
      "tags": {
        "name": "Paschimanchal Kastha Udhyog",
        "shop": "trade",
        "trade": "timber_yard"
      }
    },
    {
      "type": "node",
      "id": 2079575205,
      "lat": 27.7354726,
      "lon": 85.3213423,
      "tags": {
        "name": "R.K. Automobile",
        "shop": "car_repair"
      }
    },
    {
      "type": "node",
      "id": 2079575206,
      "lat": 27.7351557,
      "lon": 85.3205748,
      "tags": {
        "name": "Valley Top Auto Workshop",
        "shop": "car_repair"
      }
    },
    {
      "type": "node",
      "id": 2079675402,
      "lat": 27.742005,
      "lon": 85.3340446,
      "tags": {
        "name": "Buddhi Books and Stationary",
        "shop": "stationery",
        "wheelchair": "limited"
      }
    },
    {
      "type": "node",
      "id": 2079675408,
      "lat": 27.7422974,
      "lon": 85.3333429,
      "tags": {
        "name": "Jeson suppliers",
        "shop": "trade"
      }
    },
    {
      "type": "node",
      "id": 2079675415,
      "lat": 27.7424543,
      "lon": 85.3337204,
      "tags": {
        "name": "New Dilip Sweet and Chaat House",
        "shop": "confectionery"
      }
    },
    {
      "type": "node",
      "id": 2079675417,
      "lat": 27.741518,
      "lon": 85.3336459,
      "tags": {
        "name": "P.S. Traders, Basundhara-3",
        "shop": "trade"
      }
    },
    {
      "type": "node",
      "id": 2079675418,
      "lat": 27.7422943,
      "lon": 85.333385,
      "tags": {
        "name": "Pashupati Stationary and Gift Shop",
        "shop": "stationery"
      }
    },
    {
      "type": "node",
      "id": 2079675423,
      "lat": 27.7418563,
      "lon": 85.3343005,
      "tags": {
        "name": "Vintagewin",
        "shop": "alcohol"
      }
    },
    {
      "type": "node",
      "id": 2079675424,
      "lat": 27.7402277,
      "lon": 85.3364295,
      "tags": {
        "name": "Whirlpool Home appliances",
        "shop": "electronics"
      }
    },
    {
      "type": "node",
      "id": 2079679706,
      "lat": 27.7388474,
      "lon": 85.3242161,
      "tags": {
        "name": "Aisha Dry Cleaners",
        "shop": "dry_cleaning"
      }
    },
    {
      "type": "node",
      "id": 2079679708,
      "lat": 27.7386391,
      "lon": 85.3244839,
      "tags": {
        "name": "Basundhara Enterprises",
        "shop": "alcohol"
      }
    },
    {
      "type": "node",
      "id": 2079679712,
      "lat": 27.7383352,
      "lon": 85.3246733,
      "tags": {
        "name": "Durga hair Dresser Saloon",
        "shop": "hairdresser"
      }
    },
    {
      "type": "node",
      "id": 2079679714,
      "lat": 27.7386052,
      "lon": 85.3244046,
      "tags": {
        "name": "Maharjan Kitchen Items",
        "shop": "kitchen"
      }
    },
    {
      "type": "node",
      "id": 2079679715,
      "lat": 27.738617,
      "lon": 85.3244912,
      "tags": {
        "name": "RK Mobile Repairing Center",
        "shop": "mobile_phone"
      }
    },
    {
      "type": "node",
      "id": 2079679716,
      "lat": 27.7384599,
      "lon": 85.3245482,
      "tags": {
        "shop": "greengrocer"
      }
    },
    {
      "type": "node",
      "id": 2079679717,
      "lat": 27.7384703,
      "lon": 85.3245352,
      "tags": {
        "shop": "clothes"
      }
    },
    {
      "type": "node",
      "id": 2079679719,
      "lat": 27.738664,
      "lon": 85.3243296,
      "tags": {
        "shop": "clothes"
      }
    },
    {
      "type": "node",
      "id": 2079679722,
      "lat": 27.7388612,
      "lon": 85.3242017,
      "tags": {
        "shop": "stationery"
      }
    },
    {
      "type": "node",
      "id": 2082046851,
      "lat": 27.7122366,
      "lon": 85.3285084,
      "tags": {
        "name": "Shandr Complex",
        "shop": "supermarket"
      }
    },
    {
      "type": "node",
      "id": 2082046852,
      "lat": 27.7131696,
      "lon": 85.3287849,
      "tags": {
        "name": "Shrestha Shopping Center",
        "shop": "supermarket"
      }
    },
    {
      "type": "node",
      "id": 2082923339,
      "lat": 27.7033424,
      "lon": 85.3126237,
      "tags": {
        "name": "Baraha Jewellery Industries",
        "shop": "jewelry"
      }
    },
    {
      "type": "node",
      "id": 2082971962,
      "lat": 27.7184377,
      "lon": 85.3367238,
      "tags": {
        "shop": "mobile_phone"
      }
    },
    {
      "type": "node",
      "id": 2082972933,
      "lat": 27.7186477,
      "lon": 85.3379705,
      "tags": {
        "name": "Anita Tailor",
        "shop": "tailor"
      }
    },
    {
      "type": "node",
      "id": 2082972934,
      "lat": 27.7188104,
      "lon": 85.3372621,
      "tags": {
        "name": "Rajesh Store",
        "shop": "convenience"
      }
    },
    {
      "type": "node",
      "id": 2082972935,
      "lat": 27.7188273,
      "lon": 85.337171,
      "tags": {
        "name": "Sitasma Cake Shop",
        "shop": "bakery"
      }
    },
    {
      "type": "node",
      "id": 2082972936,
      "lat": 27.7186685,
      "lon": 85.3378971,
      "tags": {
        "service:bicycle:rental": "yes",
        "service:bicycle:repair": "yes",
        "shop": "bicycle"
      }
    },
    {
      "type": "node",
      "id": 2082972937,
      "lat": 27.7187895,
      "lon": 85.3373312,
      "tags": {
        "shop": "convenience"
      }
    },
    {
      "type": "node",
      "id": 2082978239,
      "lat": 27.7185616,
      "lon": 85.3383601,
      "tags": {
        "name": "Budhi Ratna Furniture",
        "shop": "furniture"
      }
    },
    {
      "type": "node",
      "id": 2082978240,
      "lat": 27.7183782,
      "lon": 85.3386474,
      "tags": {
        "name": "Fresh Meat House",
        "shop": "butcher"
      }
    },
    {
      "type": "node",
      "id": 2082978242,
      "lat": 27.7185485,
      "lon": 85.338467,
      "tags": {
        "name": "Kaushik Shoe Shop",
        "shop": "shoes"
      }
    },
    {
      "type": "node",
      "id": 2082978243,
      "lat": 27.7185801,
      "lon": 85.3382366,
      "tags": {
        "name": "Monte Bianco Adventures",
        "shop": "travel_agency"
      }
    },
    {
      "type": "node",
      "id": 2082978245,
      "lat": 27.7184385,
      "lon": 85.3385619,
      "tags": {
        "name": "Rupa Cold Store",
        "shop": "convenience"
      }
    },
    {
      "type": "node",
      "id": 2082978246,
      "lat": 27.7185556,
      "lon": 85.3384269,
      "tags": {
        "name": "Subarna Furnitures",
        "shop": "furniture"
      }
    },
    {
      "type": "node",
      "id": 2082983564,
      "lat": 27.7183678,
      "lon": 85.3388292,
      "tags": {
        "name": "Bhatbhateni Motorcylce Parts",
        "parts": "yes",
        "repair": "yes",
        "shop": "motorcycle"
      }
    },
    {
      "type": "node",
      "id": 2082983565,
      "lat": 27.7183435,
      "lon": 85.3389151,
      "tags": {
        "name": "Dhana Laxmi Jewellers",
        "shop": "jewelry"
      }
    },
    {
      "type": "node",
      "id": 2082983566,
      "lat": 27.718382,
      "lon": 85.338781,
      "tags": {
        "name": "Gorkhali Cold Store",
        "shop": "convenience"
      }
    },
    {
      "type": "node",
      "id": 2082983567,
      "lat": 27.7183603,
      "lon": 85.3388641,
      "tags": {
        "name": "Meatshop",
        "shop": "butcher"
      }
    },
    {
      "type": "node",
      "id": 2082983568,
      "lat": 27.718377,
      "lon": 85.3388018,
      "tags": {
        "name": "Nepal Stationery",
        "shop": "stationery"
      }
    },
    {
      "type": "node",
      "id": 2082987645,
      "lat": 27.7194249,
      "lon": 85.3370657,
      "tags": {
        "name": "Angel Beauty Parlour",
        "shop": "hairdresser"
      }
    },
    {
      "type": "node",
      "id": 2082987646,
      "lat": 27.7204758,
      "lon": 85.3393936,
      "tags": {
        "name": "Ankit Cold Store",
        "shop": "convenience"
      }
    },
    {
      "type": "node",
      "id": 2082987647,
      "lat": 27.7197522,
      "lon": 85.3392459,
      "tags": {
        "name": "Bharat Goods Suppliers",
        "shop": "convenience"
      }
    },
    {
      "type": "node",
      "id": 2082987649,
      "lat": 27.7214329,
      "lon": 85.3381333,
      "tags": {
        "name": "Bisika Jewellers",
        "shop": "jewelry"
      }
    },
    {
      "type": "node",
      "id": 2082987658,
      "lat": 27.7196818,
      "lon": 85.3394692,
      "tags": {
        "name": "Dharan Beauty Parlour",
        "shop": "hairdresser"
      }
    },
    {
      "type": "node",
      "id": 2082987661,
      "lat": 27.7197415,
      "lon": 85.3391318,
      "tags": {
        "name": "Dolkha Cold Store",
        "shop": "convenience"
      }
    },
    {
      "type": "node",
      "id": 2082987664,
      "lat": 27.7197856,
      "lon": 85.3391421,
      "tags": {
        "name": "Fine Flevours Suppliers",
        "shop": "convenience"
      }
    },
    {
      "type": "node",
      "id": 2082987671,
      "lat": 27.7214998,
      "lon": 85.3377186,
      "tags": {
        "name": "Shree Ganesh Furniture",
        "shop": "furniture"
      }
    },
    {
      "type": "node",
      "id": 2082987681,
      "lat": 27.719199,
      "lon": 85.336956,
      "tags": {
        "name": "Laxmi Workshop",
        "repair": "yes",
        "shop": "motorcycle"
      }
    },
    {
      "type": "node",
      "id": 2082987685,
      "lat": 27.7212623,
      "lon": 85.3380694,
      "tags": {
        "name": "Monalisa Beauty Parlour",
        "shop": "hairdresser"
      }
    },
    {
      "type": "node",
      "id": 2082987688,
      "lat": 27.7191435,
      "lon": 85.3369244,
      "tags": {
        "name": "NK Electronics Repair",
        "shop": "electronics"
      }
    },
    {
      "type": "node",
      "id": 2082987691,
      "lat": 27.7193817,
      "lon": 85.3370392,
      "tags": {
        "name": "Nepal Khadya Store",
        "shop": "convenience"
      }
    },
    {
      "type": "node",
      "id": 2082987694,
      "lat": 27.7206116,
      "lon": 85.3386875,
      "tags": {
        "name": "New Ladies Tailor",
        "shop": "tailor"
      }
    },
    {
      "type": "node",
      "id": 2082987704,
      "lat": 27.7197441,
      "lon": 85.339101,
      "tags": {
        "name": "Nice Girl Beauty Parlour",
        "shop": "hairdresser"
      }
    },